{
"type": "FeatureCollection",
"name": "objects_zdrav_2",
"crs": { "type": "name", "properties": { "name": "urn:ogc:def:crs:EPSG::3857" } },
"features": [
{ "type": "Feature", "properties": { "id": 497, "name": "Зубной лекарь, стоматологическая клиника, ООО Архком", "city": "Архангельск", "street": "Троицкий проспект", "house": "12", "post": "", "x": 40.53136647, "y": 64.53250401, "cpi_id": 15347 }, "geometry": { "type": "Point", "coordinates": [ 4511931.076595973223448, 9486294.630177862942219 ] } },
{ "type": "Feature", "properties": { "id": 540, "name": "Северодвинская городская больница №1, ГБУЗ", "city": "Северодвинск (Северодвинск городской округ)", "street": "Серго Орджоникидзе", "house": "2а", "post": "164512", "x": 39.78485166, "y": 64.56124396, "cpi_id": 16904 }, "geometry": { "type": "Point", "coordinates": [ 4428829.428077138960361, 9493738.839868620038033 ] } },
{ "type": "Feature", "properties": { "id": 1196, "name": "Стоматошка, ООО, центр семейной стоматологии", "city": "Северодвинск (Северодвинск городской округ)", "street": "Ломоносова", "house": "97", "post": "164522", "x": 39.76807628, "y": 64.54797801, "cpi_id": 37139 }, "geometry": { "type": "Point", "coordinates": [ 4426962.001317676156759, 9490301.724227875471115 ] } },
{ "type": "Feature", "properties": { "id": 1449, "name": "Arctic Smile, клиника эстетической стоматологии", "city": "Архангельск", "street": "Советских Космонавтов проспект", "house": "115", "post": "163000", "x": 40.53248396, "y": 64.54532494, "cpi_id": 44992 }, "geometry": { "type": "Point", "coordinates": [ 4512055.475013732910156, 9489614.532835938036442 ] } },
{ "type": "Feature", "properties": { "id": 1499, "name": "Семейный доктор, ООО, медицинский центр", "city": "Северодвинск (Северодвинск городской округ)", "street": "Железнодорожная", "house": "34", "post": "164521", "x": 39.85642633, "y": 64.5613773, "cpi_id": 46921 }, "geometry": { "type": "Point", "coordinates": [ 4436797.083895232528448, 9493773.395829580724239 ] } },
{ "type": "Feature", "properties": { "id": 1940, "name": "Альтаир, ООО, стоматологическая клиника", "city": "Архангельск", "street": "Гагарина", "house": "45", "post": "163045", "x": 40.55717792, "y": 64.55612588, "cpi_id": 60521 }, "geometry": { "type": "Point", "coordinates": [ 4514804.394066605716944, 9492412.582664415240288 ] } },
{ "type": "Feature", "properties": { "id": 1986, "name": "Людмила, стоматологический кабинет", "city": "Архангельск", "street": "Химиков", "house": "5 к1", "post": "163059", "x": 40.58983893, "y": 64.59432792, "cpi_id": 62260 }, "geometry": { "type": "Point", "coordinates": [ 4518440.201068602502346, 9502317.959188386797905 ] } },
{ "type": "Feature", "properties": { "id": 3012, "name": "РЭП 10, ООО, медицинский кабинет предрейсового и послерейсового осмотра", "city": "Архангельск", "street": "Комсомольская", "house": "54", "post": "163072", "x": 40.54365995, "y": 64.55640586, "cpi_id": 94262 }, "geometry": { "type": "Point", "coordinates": [ 4513299.580529648810625, 9492485.127942845225334 ] } },
{ "type": "Feature", "properties": { "id": 3098, "name": "Северодвинская городская больница №1, ГБУЗ", "city": "Северодвинск (Северодвинск городской округ)", "street": "Ломоносова", "house": "47а", "post": "164504", "x": 39.82111901, "y": 64.5563836, "cpi_id": 96776 }, "geometry": { "type": "Point", "coordinates": [ 4432866.691011562943459, 9492479.36015397310257 ] } },
{ "type": "Feature", "properties": { "id": 4001, "name": "Новодвинская центральная городская больница, ГБУЗ", "city": "Новодвинск (Новодвинск городской округ)", "street": "3-й Пятилетки", "house": "9е", "post": "164900", "x": 40.81022963, "y": 64.41081531, "cpi_id": 125731 }, "geometry": { "type": "Point", "coordinates": [ 4542973.981568172574043, 9454861.48596977442503 ] } },
{ "type": "Feature", "properties": { "id": 4236, "name": "CMD, медицинский центр", "city": "Архангельск", "street": "Обводный канал проспект", "house": "9 к3", "post": "163002", "x": 40.55847157, "y": 64.53642225, "cpi_id": 132952 }, "geometry": { "type": "Point", "coordinates": [ 4514948.402525871992111, 9487309.069304436445236 ] } },
{ "type": "Feature", "properties": { "id": 4608, "name": "Стоматология 1, ООО", "city": "Архангельск", "street": "Выучейского", "house": "25", "post": "163046", "x": 40.53962463, "y": 64.53474923, "cpi_id": 145411 }, "geometry": { "type": "Point", "coordinates": [ 4512850.370762068778276, 9486875.903706379234791 ] } },
{ "type": "Feature", "properties": { "id": 6479, "name": "Центр зрения", "city": "Архангельск", "street": "Обводный канал проспект", "house": "9", "post": "163002", "x": 40.55692168, "y": 64.53560131, "cpi_id": 205163 }, "geometry": { "type": "Point", "coordinates": [ 4514775.869560290127993, 9487096.514452375471592 ] } },
{ "type": "Feature", "properties": { "id": 6489, "name": "Эко-клиник, ООО, медицинский центр", "city": "Северодвинск (Северодвинск городской округ)", "street": "Серго Орджоникидзе", "house": "2а", "post": "164512", "x": 39.78485166, "y": 64.56124396, "cpi_id": 205413 }, "geometry": { "type": "Point", "coordinates": [ 4428829.428077138960361, 9493738.839868620038033 ] } },
{ "type": "Feature", "properties": { "id": 6871, "name": "Добрый доктор, ООО, многопрофильная клиника", "city": "Северодвинск (Северодвинск городской округ)", "street": "Советская", "house": "55", "post": "164501", "x": 39.8151746, "y": 64.56204061, "cpi_id": 217762 }, "geometry": { "type": "Point", "coordinates": [ 4432204.962317287921906, 9493945.299605444073677 ] } },
{ "type": "Feature", "properties": { "id": 7684, "name": "Северодвинская городская больница №1, ГБУЗ", "city": "Северодвинск (Северодвинск городской округ)", "street": "Беломорский проспект", "house": "76а", "post": "164521", "x": 39.85339963, "y": 64.55582327, "cpi_id": 244371 }, "geometry": { "type": "Point", "coordinates": [ 4436460.153192445635796, 9492334.174591973423958 ] } },
{ "type": "Feature", "properties": { "id": 8239, "name": "Гармония, центр психологической помощи и медиации", "city": "Архангельск", "street": "Котласская", "house": "1/1", "post": "163060", "x": 40.5562346, "y": 64.53936856, "cpi_id": 261914 }, "geometry": { "type": "Point", "coordinates": [ 4514699.384164549410343, 9488071.970033384859562 ] } },
{ "type": "Feature", "properties": { "id": 8261, "name": "Северодвинский психоневрологический диспансер", "city": "Северодвинск (Северодвинск городской округ)", "street": "Макаренко", "house": "11", "post": "164509", "x": 39.79209561, "y": 64.59429011, "cpi_id": 262620 }, "geometry": { "type": "Point", "coordinates": [ 4429635.820902466773987, 9502308.148591428995132 ] } },
{ "type": "Feature", "properties": { "id": 8389, "name": "Центр ЭКО, клиника репродуктивного здоровья", "city": "Архангельск", "street": "Воскресенская", "house": "87 к2", "post": "163046", "x": 40.54516786, "y": 64.54580745, "cpi_id": 265979 }, "geometry": { "type": "Point", "coordinates": [ 4513467.440303012728691, 9489739.506366059184074 ] } },
{ "type": "Feature", "properties": { "id": 8593, "name": "Благополучие, центр", "city": "Северодвинск (Северодвинск городской округ)", "street": "Ломоносова", "house": "75", "post": "164500", "x": 39.79645137, "y": 64.55186187, "cpi_id": 272990 }, "geometry": { "type": "Point", "coordinates": [ 4430120.701887685805559, 9491307.832275301218033 ] } },
{ "type": "Feature", "properties": { "id": 8904, "name": "Приморская центральная районная больница, ГБУЗ", "city": "Рикасиха (Приморский район)", "street": "Рикасиха деревня", "house": "67", "post": "163523", "x": 40.17024567, "y": 64.53695848, "cpi_id": 282535 }, "geometry": { "type": "Point", "coordinates": [ 4471731.293025109916925, 9487447.911513529717922 ] } },
{ "type": "Feature", "properties": { "id": 9751, "name": "Профи-Стом, ООО, стоматологический кабинет", "city": "Архангельск", "street": "Гагарина", "house": "14", "post": "163045", "x": 40.54355233, "y": 64.56113154000001, "cpi_id": 308918 }, "geometry": { "type": "Point", "coordinates": [ 4513287.600326057523489, 9493709.705598227679729 ] } },
{ "type": "Feature", "properties": { "id": 9990, "name": "Денталь, стоматологический центр", "city": "Архангельск", "street": "Новгородский проспект", "house": "87", "post": "163046", "x": 40.53622513, "y": 64.53694562, "cpi_id": 317339 }, "geometry": { "type": "Point", "coordinates": [ 4512471.940153107047081, 9487444.581733509898186 ] } },
{ "type": "Feature", "properties": { "id": 10661, "name": "Voxel", "city": "Архангельск", "street": "Северной Двины набережная", "house": "71 к1", "post": "163069", "x": 40.5223082, "y": 64.5325335, "cpi_id": 338186 }, "geometry": { "type": "Point", "coordinates": [ 4510922.714592099189758, 9486302.264645926654339 ] } },
{ "type": "Feature", "properties": { "id": 11231, "name": "Стома, стоматологический кабинет", "city": "Северодвинск (Северодвинск городской округ)", "street": "Ленина проспект", "house": "4", "post": "164501", "x": 39.82169738, "y": 64.56684154, "cpi_id": 356029 }, "geometry": { "type": "Point", "coordinates": [ 4432931.074865445494652, 9495189.635952942073345 ] } },
{ "type": "Feature", "properties": { "id": 11278, "name": "Ваш стоматолог, ООО, стоматологическая клиника", "city": "Архангельск", "street": "Никитова", "house": "7", "post": "163062", "x": 40.66935595, "y": 64.51000014, "cpi_id": 357429 }, "geometry": { "type": "Point", "coordinates": [ 4527291.995244406163692, 9480471.158231146633625 ] } },
{ "type": "Feature", "properties": { "id": 11349, "name": "Дио-мед, ООО, стоматологический кабинет", "city": "Архангельск", "street": "Красина", "house": "10 к1", "post": "163044", "x": 40.33535447, "y": 64.53283574, "cpi_id": 360050 }, "geometry": { "type": "Point", "coordinates": [ 4490111.120566599071026, 9486380.51000564545393 ] } },
{ "type": "Feature", "properties": { "id": 11386, "name": "Архангельская клиническая психиатрическая больница, ГБУЗ", "city": "Архангельск", "street": "Северной Двины набережная", "house": "95", "post": "163000", "x": 40.51252351, "y": 64.54421673, "cpi_id": 361072 }, "geometry": { "type": "Point", "coordinates": [ 4509833.487883727997541, 9489327.50691531598568 ] } },
{ "type": "Feature", "properties": { "id": 11419, "name": "Архангельская городская детская клиническая больница, ГБУЗ", "city": "Архангельск", "street": "Северной Двины набережная", "house": "96", "post": "163000", "x": 40.51284957, "y": 64.54483915, "cpi_id": 362244 }, "geometry": { "type": "Point", "coordinates": [ 4509869.784716907888651, 9489488.711995996534824 ] } },
{ "type": "Feature", "properties": { "id": 11853, "name": "Архангельская областная клиническая больница, ГБУЗ", "city": "Архангельск", "street": "Ломоносова проспект", "house": "292", "post": "163045", "x": 40.54529714, "y": 64.56277758, "cpi_id": 375737 }, "geometry": { "type": "Point", "coordinates": [ 4513481.831686779856682, 9494136.298053309321404 ] } },
{ "type": "Feature", "properties": { "id": 12222, "name": "Архангельская клиническая психиатрическая больница, ГБУЗ", "city": "Талаги (Приморский район)", "street": "Талаги посёлок", "house": "31", "post": "163530", "x": 40.69503125, "y": 64.6281075, "cpi_id": 387446 }, "geometry": { "type": "Point", "coordinates": [ 4530150.156566366553307, 9511088.230204790830612 ] } },
{ "type": "Feature", "properties": { "id": 12401, "name": "Эко строй комплекс, гипермаркет товаров для дома, отдыха и уюта", "city": "Архангельск", "street": "Дежнёвцев", "house": "34 ст1", "post": "163035", "x": 40.58304254, "y": 64.51136449000001, "cpi_id": 392628 }, "geometry": { "type": "Point", "coordinates": [ 4517683.630394570529461, 9480824.083256959915161 ] } },
{ "type": "Feature", "properties": { "id": 12621, "name": "ЕвроДент, клиника нейромышечной стоматологии", "city": "Архангельск", "street": "Урицкого", "house": "47", "post": "163060", "x": 40.56702931, "y": 64.53779532, "cpi_id": 400109 }, "geometry": { "type": "Point", "coordinates": [ 4515901.045785017311573, 9487664.593978084623814 ] } },
{ "type": "Feature", "properties": { "id": 12659, "name": "Омега, психологический центр", "city": "Архангельск", "street": "Урицкого", "house": "47", "post": "163060", "x": 40.56702931, "y": 64.53779532, "cpi_id": 401042 }, "geometry": { "type": "Point", "coordinates": [ 4515901.045785017311573, 9487664.593978084623814 ] } },
{ "type": "Feature", "properties": { "id": 12740, "name": "Кабинет психолога", "city": "Архангельск", "street": "Серафимовича", "house": "30", "post": "163069", "x": 40.53697477, "y": 64.53562785, "cpi_id": 403485 }, "geometry": { "type": "Point", "coordinates": [ 4512555.389696188271046, 9487103.385994330048561 ] } },
{ "type": "Feature", "properties": { "id": 13091, "name": "Стоматологический кабинет", "city": "Северодвинск (Северодвинск городской округ)", "street": "Лебедева", "house": "10", "post": "164502", "x": 39.79979727, "y": 64.53913977000001, "cpi_id": 415397 }, "geometry": { "type": "Point", "coordinates": [ 4430493.165771931409836, 9488012.72550342977047 ] } },
{ "type": "Feature", "properties": { "id": 13682, "name": "Фельдшерско-акушерский пункт, Приморская центральная районная больница", "city": "Хорьково (Приморский район)", "street": "Хорьково деревня", "house": "50", "post": "163503", "x": 41.02288652, "y": 64.37737487, "cpi_id": 434265 }, "geometry": { "type": "Point", "coordinates": [ 4566646.838276650756598, 9446247.981055557727814 ] } },
{ "type": "Feature", "properties": { "id": 13769, "name": "Шаг, ортопедический салон", "city": "Архангельск", "street": "Воскресенская", "house": "81", "post": "163046", "x": 40.54025815, "y": 64.54390165, "cpi_id": 436746 }, "geometry": { "type": "Point", "coordinates": [ 4512920.893885869532824, 9489245.903458021581173 ] } },
{ "type": "Feature", "properties": { "id": 14240, "name": "Белая роза, МБУ, диагностический центр женского здоровья", "city": "Архангельск", "street": "Троицкий проспект", "house": "99", "post": "163000", "x": 40.52038002, "y": 64.55274569, "cpi_id": 451931 }, "geometry": { "type": "Point", "coordinates": [ 4510708.070576351135969, 9491536.804524533450603 ] } },
{ "type": "Feature", "properties": { "id": 14883, "name": "Стоматолог добрый, стоматологический центр", "city": "Северодвинск (Северодвинск городской округ)", "street": "Советская", "house": "55", "post": "164501", "x": 39.8151746, "y": 64.56204061, "cpi_id": 471817 }, "geometry": { "type": "Point", "coordinates": [ 4432204.962317287921906, 9493945.299605444073677 ] } },
{ "type": "Feature", "properties": { "id": 15098, "name": "Персона, медицинская клиника", "city": "Архангельск", "street": "Выучейского", "house": "25", "post": "163046", "x": 40.53962463, "y": 64.53474923, "cpi_id": 478161 }, "geometry": { "type": "Point", "coordinates": [ 4512850.370762068778276, 9486875.903706379234791 ] } },
{ "type": "Feature", "properties": { "id": 16099, "name": "White, стоматологическая клиника", "city": "Архангельск", "street": "Северной Двины набережная", "house": "32", "post": "163069", "x": 40.54031525, "y": 64.53037387000001, "cpi_id": 510534 }, "geometry": { "type": "Point", "coordinates": [ 4512927.25022879242897, 9485743.194356553256512 ] } },
{ "type": "Feature", "properties": { "id": 16852, "name": "Детский доктор, ООО, медицинский центр", "city": "Архангельск", "street": "Тимме", "house": "17 к2", "post": "163071", "x": 40.55863997, "y": 64.54905413, "cpi_id": 533461 }, "geometry": { "type": "Point", "coordinates": [ 4514967.148728124797344, 9490580.477131076157093 ] } },
{ "type": "Feature", "properties": { "id": 16908, "name": "Рива, медицинский центр", "city": "Архангельск", "street": "Урицкого", "house": "1", "post": "163002", "x": 40.55526881, "y": 64.52786963, "cpi_id": 535228 }, "geometry": { "type": "Point", "coordinates": [ 4514591.872913539409637, 9485094.969170138239861 ] } },
{ "type": "Feature", "properties": { "id": 16983, "name": "Аурум плюс, медицинский центр", "city": "Северодвинск (Северодвинск городской округ)", "street": "Беломорский проспект", "house": "78", "post": "164521", "x": 39.85336609, "y": 64.55623178, "cpi_id": 537370 }, "geometry": { "type": "Point", "coordinates": [ 4436456.419536724686623, 9492440.022197432816029 ] } },
{ "type": "Feature", "properties": { "id": 17205, "name": "Медико-диагностический центр", "city": "Архангельск", "street": "Советская", "house": "5", "post": "163020", "x": 40.5230458, "y": 64.5703328, "cpi_id": 544971 }, "geometry": { "type": "Point", "coordinates": [ 4511004.823848512023687, 9496094.661191493272781 ] } },
{ "type": "Feature", "properties": { "id": 17777, "name": "Центр гигиены и эпидемиологии в Архангельской области, ФБУЗ", "city": "Архангельск", "street": "Троицкий проспект", "house": "164 к1", "post": "163001", "x": 40.52591931, "y": 64.55802709, "cpi_id": 563672 }, "geometry": { "type": "Point", "coordinates": [ 4511324.701518505811691, 9492905.217532731592655 ] } },
{ "type": "Feature", "properties": { "id": 17932, "name": "Эстет, стоматологический центр", "city": "Архангельск", "street": "Ломоносова проспект", "house": "258/1", "post": "163001", "x": 40.53150902, "y": 64.55853989000001, "cpi_id": 567799 }, "geometry": { "type": "Point", "coordinates": [ 4511946.945189386606216, 9493038.098354429006577 ] } },
{ "type": "Feature", "properties": { "id": 18030, "name": "Voxel, центр рентген-диагностики, ООО ВоксельКлиник", "city": "Северодвинск (Северодвинск городской округ)", "street": "Архангельское шоссе", "house": "77", "post": "164512", "x": 39.78335473, "y": 64.55994882, "cpi_id": 570890 }, "geometry": { "type": "Point", "coordinates": [ 4428662.790591776371002, 9493403.204392313957214 ] } },
{ "type": "Feature", "properties": { "id": 18593, "name": "Приморская центральная районная больница, ГБУЗ", "city": "Уемский (Приморский район)", "street": "Большесельская", "house": "60", "post": "163502", "x": 40.86427353, "y": 64.47375331000001, "cpi_id": 588466 }, "geometry": { "type": "Point", "coordinates": [ 4548990.120996654033661, 9471101.410570397973061 ] } },
{ "type": "Feature", "properties": { "id": 18661, "name": "Архангельский клинический противотуберкулезный диспансер, ГБУЗ", "city": "Архангельск", "street": "Новгородский проспект", "house": "28", "post": "163002", "x": 40.5560476, "y": 64.53297257, "cpi_id": 590315 }, "geometry": { "type": "Point", "coordinates": [ 4514678.567419778555632, 9486415.933505840599537 ] } },
{ "type": "Feature", "properties": { "id": 18712, "name": "Александрия, стоматологическая клиника", "city": "Архангельск", "street": "Штурманская", "house": "1", "post": "163038", "x": 40.65228955, "y": 64.4577917, "cpi_id": 591752 }, "geometry": { "type": "Point", "coordinates": [ 4525392.172286722809076, 9466979.295981168746948 ] } },
{ "type": "Feature", "properties": { "id": 19222, "name": "Helix, лабораторная служба, ООО Профессионал", "city": "Архангельск", "street": "Гайдара", "house": "4 к1", "post": "163000", "x": 40.51748121, "y": 64.55265609, "cpi_id": 607286 }, "geometry": { "type": "Point", "coordinates": [ 4510385.376523237675428, 9491513.591412872076035 ] } },
{ "type": "Feature", "properties": { "id": 19965, "name": "Гемотест, медицинская лаборатория", "city": "Архангельск", "street": "Дачная", "house": "50", "post": "163015", "x": 40.665184, "y": 64.51777174, "cpi_id": 632322 }, "geometry": { "type": "Point", "coordinates": [ 4526827.575894791632891, 9482481.722875699400902 ] } },
{ "type": "Feature", "properties": { "id": 20189, "name": "Кабинет психолога", "city": "Архангельск", "street": "Северной Двины набережная", "house": "55", "post": "163069", "x": 40.52667582, "y": 64.5308654, "cpi_id": 639608 }, "geometry": { "type": "Point", "coordinates": [ 4511408.915826484560966, 9485870.434402719140053 ] } },
{ "type": "Feature", "properties": { "id": 20615, "name": "Дантист, стоматологический кабинет", "city": "Архангельск", "street": "Выучейского", "house": "25", "post": "163046", "x": 40.53962463, "y": 64.53474923, "cpi_id": 654078 }, "geometry": { "type": "Point", "coordinates": [ 4512850.370762068778276, 9486875.903706379234791 ] } },
{ "type": "Feature", "properties": { "id": 21794, "name": "Optimus Medicus, медицинский центр", "city": "Архангельск", "street": "Урицкого", "house": "54 к2", "post": "163060", "x": 40.56883028, "y": 64.53769798, "cpi_id": 691113 }, "geometry": { "type": "Point", "coordinates": [ 4516101.528848350048065, 9487639.389450415968895 ] } },
{ "type": "Feature", "properties": { "id": 21994, "name": "Кабинет психолога", "city": "Архангельск", "street": "Северной Двины набережная", "house": "71 к1", "post": "163069", "x": 40.5223082, "y": 64.5325335, "cpi_id": 697397 }, "geometry": { "type": "Point", "coordinates": [ 4510922.714592099189758, 9486302.264645926654339 ] } },
{ "type": "Feature", "properties": { "id": 23144, "name": "Smart Medica, медицинский центр", "city": "Архангельск", "street": "Урицкого", "house": "1", "post": "163002", "x": 40.55526881, "y": 64.52786963, "cpi_id": 733148 }, "geometry": { "type": "Point", "coordinates": [ 4514591.872913539409637, 9485094.969170138239861 ] } },
{ "type": "Feature", "properties": { "id": 23554, "name": "Архангельская городская клиническая больница №4, ГБУЗ", "city": "Архангельск", "street": "Рейдовая", "house": "3", "post": "163035", "x": 40.60201197, "y": 64.49368278, "cpi_id": 746718 }, "geometry": { "type": "Point", "coordinates": [ 4519795.29768280684948, 9476251.609224528074265 ] } },
{ "type": "Feature", "properties": { "id": 23833, "name": "Александрия, стоматологическая клиника", "city": "Новодвинск (Новодвинск городской округ)", "street": "50-летия Октября", "house": "32", "post": "164902", "x": 40.81215643, "y": 64.41720055, "cpi_id": 755251 }, "geometry": { "type": "Point", "coordinates": [ 4543188.471963036805391, 9456507.373583994805813 ] } },
{ "type": "Feature", "properties": { "id": 23939, "name": "Северодвинская стоматологическая поликлиника, ГАУЗ", "city": "Северодвинск (Северодвинск городской округ)", "street": "Строителей бульвар", "house": "17", "post": "164522", "x": 39.75599059, "y": 64.54758558, "cpi_id": 758447 }, "geometry": { "type": "Point", "coordinates": [ 4425616.628460988402367, 9490200.073801971971989 ] } },
{ "type": "Feature", "properties": { "id": 24187, "name": "Надежда, ООО, стоматологический кабинет", "city": "Новодвинск (Новодвинск городской округ)", "street": "50-летия Октября", "house": "3а", "post": "164900", "x": 40.82879584, "y": 64.41337575, "cpi_id": 766362 }, "geometry": { "type": "Point", "coordinates": [ 4545040.762611337006092, 9455521.430266849696636 ] } },
{ "type": "Feature", "properties": { "id": 24376, "name": "Айва, ООО, студия семейной стоматологии", "city": "Архангельск", "street": "Карла Либкнехта", "house": "22", "post": "163046", "x": 40.52681888, "y": 64.53891132, "cpi_id": 771615 }, "geometry": { "type": "Point", "coordinates": [ 4511424.841192834079266, 9487953.569511279463768 ] } },
{ "type": "Feature", "properties": { "id": 26475, "name": "Эстетика, стоматологический центр", "city": "Северодвинск (Северодвинск городской округ)", "street": "Серго Орджоникидзе", "house": "2а к1", "post": "164512", "x": 39.78432975, "y": 64.56033454, "cpi_id": 834923 }, "geometry": { "type": "Point", "coordinates": [ 4428771.329321697354317, 9493503.162046320736408 ] } },
{ "type": "Feature", "properties": { "id": 26824, "name": "Шаг, ортопедический салон", "city": "Архангельск", "street": "Северной Двины набережная", "house": "27", "post": "163069", "x": 40.54175642, "y": 64.52964085000001, "cpi_id": 846105 }, "geometry": { "type": "Point", "coordinates": [ 4513087.680539347231388, 9485553.445193313062191 ] } },
{ "type": "Feature", "properties": { "id": 26907, "name": "Архангельская областная клиническая больница, ГБУЗ", "city": "Архангельск", "street": "Самойло", "house": "13", "post": "163045", "x": 40.54303761, "y": 64.56021857, "cpi_id": 848862 }, "geometry": { "type": "Point", "coordinates": [ 4513230.301957752555609, 9493473.108778417110443 ] } },
{ "type": "Feature", "properties": { "id": 27349, "name": "Северный медицинский клинический центр им. Н.А. Семашко, ФГБУЗ", "city": "Архангельск", "street": "Адмиралтейская", "house": "2", "post": "163020", "x": 40.51402381, "y": 64.57274963, "cpi_id": 862740 }, "geometry": { "type": "Point", "coordinates": [ 4510000.500515766441822, 9496721.234215453267097 ] } },
{ "type": "Feature", "properties": { "id": 27665, "name": "Стоматология без боли, ООО", "city": "Архангельск", "street": "Советская", "house": "65", "post": "163013", "x": 40.51214461, "y": 64.58618489, "cpi_id": 873295 }, "geometry": { "type": "Point", "coordinates": [ 4509791.308928675949574, 9500205.393971547484398 ] } },
{ "type": "Feature", "properties": { "id": 27771, "name": "ОДУС, стоматологический кабинет", "city": "Северодвинск (Северодвинск городской округ)", "street": "Георгия Седова", "house": "17", "post": "164501", "x": 39.82176298, "y": 64.55751863, "cpi_id": 876838 }, "geometry": { "type": "Point", "coordinates": [ 4432938.377424046397209, 9492773.463794678449631 ] } },
{ "type": "Feature", "properties": { "id": 27775, "name": "Новодвинская центральная городская больница, ГБУЗ", "city": "Новодвинск (Новодвинск городской округ)", "street": "3-й Пятилетки", "house": "9Б", "post": "164900", "x": 40.81188763, "y": 64.41098471, "cpi_id": 876936 }, "geometry": { "type": "Point", "coordinates": [ 4543158.549283906817436, 9454905.146314397454262 ] } },
{ "type": "Feature", "properties": { "id": 28142, "name": "Архангельская городская детская клиническая больница, ГБУЗ", "city": "Талажский авиагородок", "street": "Авиационная", "house": "24", "post": "163053", "x": 40.70184236, "y": 64.59199508, "cpi_id": 887150 }, "geometry": { "type": "Point", "coordinates": [ 4530908.365863297134638, 9501712.68047983199358 ] } },
{ "type": "Feature", "properties": { "id": 28196, "name": "Университетская клиника, ООО", "city": "Архангельск", "street": "Воскресенская", "house": "14", "post": "163000", "x": 40.53085395, "y": 64.54106529000001, "cpi_id": 888882 }, "geometry": { "type": "Point", "coordinates": [ 4511874.023130550980568, 9488511.349022939801216 ] } },
{ "type": "Feature", "properties": { "id": 29407, "name": "Здоровье, многопрофильный медицинский центр", "city": "Северодвинск (Северодвинск городской округ)", "street": "Труда проспект", "house": "55", "post": "164505", "x": 39.81483481, "y": 64.5420111, "cpi_id": 926756 }, "geometry": { "type": "Point", "coordinates": [ 4432167.137067507952452, 9488756.284381605684757 ] } },
{ "type": "Feature", "properties": { "id": 29592, "name": "Архангельское протезно-ортопедическое предприятие, ООО", "city": "Архангельск", "street": "Урицкого", "house": "20", "post": "163002", "x": 40.56019549, "y": 64.53054636, "cpi_id": 932885 }, "geometry": { "type": "Point", "coordinates": [ 4515140.308422442525625, 9485787.845766000449657 ] } },
{ "type": "Feature", "properties": { "id": 29951, "name": "Мона Лиза, ООО, стоматологическая клиника", "city": "Северодвинск (Северодвинск городской округ)", "street": "Ленина проспект", "house": "10", "post": "164501", "x": 39.82312841, "y": 64.56517401000001, "cpi_id": 943510 }, "geometry": { "type": "Point", "coordinates": [ 4433090.376396354287863, 9494757.409802824258804 ] } },
{ "type": "Feature", "properties": { "id": 30292, "name": "Жемчужина Севера, санаторий-профилакторий", "city": "Новодвинск (Новодвинск городской округ)", "street": "Советов", "house": "2", "post": "164900", "x": 40.83625418, "y": 64.41368608000001, "cpi_id": 954054 }, "geometry": { "type": "Point", "coordinates": [ 4545871.021222300827503, 9455601.420904614031315 ] } },
{ "type": "Feature", "properties": { "id": 31833, "name": "Поморье, ООО, медицинский центр", "city": "Архангельск", "street": "Попова", "house": "6", "post": "163000", "x": 40.5158944, "y": 64.54699543, "cpi_id": 1001794 }, "geometry": { "type": "Point", "coordinates": [ 4510208.733642052859068, 9490047.21107966452837 ] } },
{ "type": "Feature", "properties": { "id": 32292, "name": "Георгин, детский медицинский центр", "city": "Архангельск", "street": "Дачная", "house": "50", "post": "163015", "x": 40.665184, "y": 64.51777174, "cpi_id": 1016633 }, "geometry": { "type": "Point", "coordinates": [ 4526827.575894791632891, 9482481.722875699400902 ] } },
{ "type": "Feature", "properties": { "id": 33626, "name": "Северодвинская городская детская клиническая больница, ГБУЗ", "city": "Северодвинск (Северодвинск городской округ)", "street": "Дзержинского", "house": "16", "post": "164524", "x": 39.80894052, "y": 64.59924146, "cpi_id": 1057893 }, "geometry": { "type": "Point", "coordinates": [ 4431510.987706128507853, 9503592.99612308293581 ] } },
{ "type": "Feature", "properties": { "id": 34224, "name": "Архангельская областная детская клиническая больница им. П.Г. Выжлецова, ГБУЗ", "city": "Архангельск", "street": "Обводный канал проспект", "house": "7", "post": "163002", "x": 40.56161607, "y": 64.53547544, "cpi_id": 1077042 }, "geometry": { "type": "Point", "coordinates": [ 4515298.446664679795504, 9487063.925207071006298 ] } },
{ "type": "Feature", "properties": { "id": 34461, "name": "Фельдшерско-акушерский пункт, Приморская центральная районная больница", "city": "Вознесенье (Приморский район)", "street": "Центральная", "house": "14", "post": "163520", "x": 40.34166605, "y": 64.57128375000001, "cpi_id": 1084483 }, "geometry": { "type": "Point", "coordinates": [ 4490813.722438309341669, 9496341.192220017313957 ] } },
{ "type": "Feature", "properties": { "id": 34833, "name": "Жемчуг плюс, ООО, стоматологический центр", "city": "Северодвинск (Северодвинск городской округ)", "street": "Серго Орджоникидзе", "house": "13а", "post": "164500", "x": 39.79360046, "y": 64.55608823, "cpi_id": 1097445 }, "geometry": { "type": "Point", "coordinates": [ 4429803.340038184076548, 9492402.82727537304163 ] } },
{ "type": "Feature", "properties": { "id": 35281, "name": "МРТ-ДИАГНОСТИКА, ООО, диагностический центр", "city": "Архангельск", "street": "Карельская", "house": "37", "post": "163001", "x": 40.53551982, "y": 64.55861702, "cpi_id": 1110591 }, "geometry": { "type": "Point", "coordinates": [ 4512393.4254030585289, 9493058.085110828280449 ] } },
{ "type": "Feature", "properties": { "id": 35469, "name": "Мауль dент, стоматологический центр", "city": "Северодвинск (Северодвинск городской округ)", "street": "Капитана Воронина", "house": "31", "post": "164504", "x": 39.81150914, "y": 64.55602462, "cpi_id": 1116565 }, "geometry": { "type": "Point", "coordinates": [ 4431796.925176564604044, 9492386.345492027699947 ] } },
{ "type": "Feature", "properties": { "id": 35660, "name": "Северный медицинский клинический центр им. Н.А. Семашко, ФГБУЗ", "city": "Архангельск", "street": "Троицкий проспект", "house": "115", "post": "163001", "x": 40.51988446, "y": 64.5547785, "cpi_id": 1122304 }, "geometry": { "type": "Point", "coordinates": [ 4510652.905089486390352, 9492063.475086227059364 ] } },
{ "type": "Feature", "properties": { "id": 37621, "name": "Архангельская клиническая психиатрическая больница, ГБУЗ", "city": "Талаги (Приморский район)", "street": "Талаги посёлок", "house": "5/6", "post": "163530", "x": 40.64360195, "y": 64.62540057, "cpi_id": 1183114 }, "geometry": { "type": "Point", "coordinates": [ 4524425.073078513145447, 9510385.021961160004139 ] } },
{ "type": "Feature", "properties": { "id": 38108, "name": "Bene Valete!, ортопедический отдел", "city": "Архангельск", "street": "Троицкий проспект", "house": "94", "post": "163000", "x": 40.51687658, "y": 64.54267061, "cpi_id": 1197771 }, "geometry": { "type": "Point", "coordinates": [ 4510318.069419514387846, 9488927.081975035369396 ] } },
{ "type": "Feature", "properties": { "id": 39213, "name": "Лидент, стоматологический кабинет", "city": "Архангельск", "street": "Советская", "house": "5", "post": "163020", "x": 40.5230458, "y": 64.5703328, "cpi_id": 1232887 }, "geometry": { "type": "Point", "coordinates": [ 4511004.823848512023687, 9496094.661191493272781 ] } },
{ "type": "Feature", "properties": { "id": 39648, "name": "ЭХО-Медика, медицинский центр", "city": "Архангельск", "street": "Северной Двины набережная", "house": "30", "post": "163069", "x": 40.53937197, "y": 64.53007371, "cpi_id": 1246554 }, "geometry": { "type": "Point", "coordinates": [ 4512822.244779519736767, 9485665.494484096765518 ] } },
{ "type": "Feature", "properties": { "id": 39848, "name": "Первая городская клиническая больница им. Е.Е. Волосевич, ГБУЗ", "city": "Архангельск", "street": "Северной Двины набережная", "house": "124", "post": "163001", "x": 40.52595602, "y": 64.56122059, "cpi_id": 1252388 }, "geometry": { "type": "Point", "coordinates": [ 4511328.788057010620832, 9493732.783392801880836 ] } },
{ "type": "Feature", "properties": { "id": 40346, "name": "Доктор ЛОР, медицинский центр", "city": "Архангельск", "street": "Урицкого", "house": "20", "post": "163002", "x": 40.56019549, "y": 64.53054636, "cpi_id": 1268307 }, "geometry": { "type": "Point", "coordinates": [ 4515140.308422442525625, 9485787.845766000449657 ] } },
{ "type": "Feature", "properties": { "id": 40494, "name": "Фельдшерско-акушерский пункт, Приморская центральная районная больница", "city": "Васьково (Приморский район)", "street": "Васьково", "house": "71", "post": "163512", "x": 40.46117652, "y": 64.41393387, "cpi_id": 1273584 }, "geometry": { "type": "Point", "coordinates": [ 4504117.567103166133165, 9455665.291886299848557 ] } },
{ "type": "Feature", "properties": { "id": 40505, "name": "Живая клиника, центр психосоматики и снижения веса", "city": "Архангельск", "street": "Троицкий проспект", "house": "65", "post": "163000", "x": 40.51539717, "y": 64.5445159, "cpi_id": 1273935 }, "geometry": { "type": "Point", "coordinates": [ 4510153.382251642644405, 9489404.990669369697571 ] } },
{ "type": "Feature", "properties": { "id": 40989, "name": "Мегастом, стоматологическая клиника", "city": "Архангельск", "street": "Ленинградский проспект", "house": "109 к2", "post": "163009", "x": 40.61178502, "y": 64.52425156, "cpi_id": 1289608 }, "geometry": { "type": "Point", "coordinates": [ 4520883.228632308542728, 9484158.532931856811047 ] } },
{ "type": "Feature", "properties": { "id": 41042, "name": "Диамед, ООО, многопрофильный медицинский центр", "city": "Архангельск", "street": "Самойло", "house": "12 к1", "post": "163072", "x": 40.54374372, "y": 64.55907768, "cpi_id": 1291437 }, "geometry": { "type": "Point", "coordinates": [ 4513308.905763391405344, 9493177.457469716668129 ] } },
{ "type": "Feature", "properties": { "id": 41565, "name": "Новодвинская центральная городская больница, ГБУЗ", "city": "Новодвинск (Новодвинск городской округ)", "street": "3-й Пятилетки", "house": "9 к2", "post": "164900", "x": 40.80840845, "y": 64.41202567000001, "cpi_id": 1308436 }, "geometry": { "type": "Point", "coordinates": [ 4542771.248737931251526, 9455173.444276489317417 ] } },
{ "type": "Feature", "properties": { "id": 41579, "name": "Люкс Денталь, стоматология", "city": "Северодвинск (Северодвинск городской округ)", "street": "Ломоносова", "house": "102а", "post": "164514", "x": 39.77908533, "y": 64.55142446000001, "cpi_id": 1308774 }, "geometry": { "type": "Point", "coordinates": [ 4428187.52315778285265, 9491194.51471646130085 ] } },
{ "type": "Feature", "properties": { "id": 41669, "name": "Ширшинский психоневрологический интернат, ГБСУ СО", "city": "Ширшинский (Приморский район)", "street": "Ширшинский посёлок", "house": "1", "post": "164900", "x": 40.7545461, "y": 64.41353467, "cpi_id": 1311674 }, "geometry": { "type": "Point", "coordinates": [ 4536775.319362994283438, 9455562.39336121827364 ] } },
{ "type": "Feature", "properties": { "id": 42652, "name": "Нор Дент, стоматологический центр", "city": "Северодвинск (Северодвинск городской округ)", "street": "Беломорский проспект", "house": "54", "post": "164521", "x": 39.84929636, "y": 64.56292274, "cpi_id": 1341832 }, "geometry": { "type": "Point", "coordinates": [ 4436003.379265461117029, 9494173.919372253119946 ] } },
{ "type": "Feature", "properties": { "id": 42803, "name": "Архангельская городская клиническая поликлиника №1, ГБУЗ", "city": "Архангельск", "street": "Кегостровская", "house": "85", "post": "163017", "x": 40.43171145, "y": 64.53860111, "cpi_id": 1346626 }, "geometry": { "type": "Point", "coordinates": [ 4500837.5305145829916, 9487873.242966458201408 ] } },
{ "type": "Feature", "properties": { "id": 43008, "name": "Трепузовский психоневрологический интернат, ГБСУ СО", "city": "Трепузово (Приморский район)", "street": "Трепузово деревня", "house": "16", "post": "163503", "x": 41.05673208, "y": 64.36279652, "cpi_id": 1352697 }, "geometry": { "type": "Point", "coordinates": [ 4570414.508781474083662, 9442496.206679336726665 ] } },
{ "type": "Feature", "properties": { "id": 43214, "name": "Доктор Смайл, стоматологический центр", "city": "Северодвинск (Северодвинск городской округ)", "street": "Первомайская", "house": "57", "post": "164500", "x": 39.79209607, "y": 64.56312331, "cpi_id": 1359510 }, "geometry": { "type": "Point", "coordinates": [ 4429635.872109435498714, 9494225.901707664132118 ] } },
{ "type": "Feature", "properties": { "id": 44366, "name": "Архангельская клиническая психиатрическая больница, ГБУЗ", "city": "Талаги (Приморский район)", "street": "Талаги посёлок", "house": "31 к1", "post": "163530", "x": 40.69142166, "y": 64.62852082000001, "cpi_id": 1394650 }, "geometry": { "type": "Point", "coordinates": [ 4529748.33884558826685, 9511195.608939900994301 ] } },
{ "type": "Feature", "properties": { "id": 44724, "name": "Северный медицинский клинический центр им. Н.А. Семашко, ФГБУЗ", "city": "Архангельск", "street": "Северной Двины набережная", "house": "66", "post": "163069", "x": 40.52581635, "y": 64.53275392, "cpi_id": 1405669 }, "geometry": { "type": "Point", "coordinates": [ 4511313.240063726902008, 9486359.327960953116417 ] } },
{ "type": "Feature", "properties": { "id": 44728, "name": "Архангельский центр лечебной физкультуры и спортивной медицины", "city": "Архангельск", "street": "Холмогорская", "house": "16 к2", "post": "163015", "x": 40.65151638, "y": 64.51599494, "cpi_id": 1405710 }, "geometry": { "type": "Point", "coordinates": [ 4525306.103396024554968, 9482022.002439267933369 ] } },
{ "type": "Feature", "properties": { "id": 46418, "name": "Другая сторона, центр реабилитации и социальной адаптации, АНО ДО Счастливое детство", "city": "Архангельск", "street": "Выучейского", "house": "16 к1", "post": "", "x": 40.5410788, "y": 64.5312233, "cpi_id": 1459544 }, "geometry": { "type": "Point", "coordinates": [ 4513012.24822598695755, 9485963.083724729716778 ] } },
{ "type": "Feature", "properties": { "id": 47344, "name": "Северная Аврора, ООО, клиника имплантации и пародонтологии", "city": "Северодвинск (Северодвинск городской округ)", "street": "Лесная", "house": "31", "post": "164521", "x": 39.83687749, "y": 64.56112453, "cpi_id": 1489223 }, "geometry": { "type": "Point", "coordinates": [ 4434620.916980836540461, 9493707.888921566307545 ] } },
{ "type": "Feature", "properties": { "id": 48837, "name": "Архангельская городская клиническая поликлиника №2, ГБУЗ", "city": "Архангельск", "street": "Прокопия Галушина", "house": "6", "post": "163009", "x": 40.61358876, "y": 64.52519616, "cpi_id": 1534094 }, "geometry": { "type": "Point", "coordinates": [ 4521084.020050629973412, 9484403.004253432154655 ] } },
{ "type": "Feature", "properties": { "id": 49873, "name": "Центральная медико-санитарная часть №58 Федерального медико-биологического агентства России", "city": "Северодвинск (Северодвинск городской округ)", "street": "Первомайская", "house": "14", "post": "164520", "x": 39.83519019, "y": 64.57053473000001, "cpi_id": 1566501 }, "geometry": { "type": "Point", "coordinates": [ 4434433.087604012340307, 9496147.010238453745842 ] } },
{ "type": "Feature", "properties": { "id": 50109, "name": "Архангельская клиническая психиатрическая больница, ГБУЗ", "city": "Талаги (Приморский район)", "street": "Талаги посёлок", "house": "5/4", "post": "163530", "x": 40.6437646, "y": 64.6248105, "cpi_id": 1574480 }, "geometry": { "type": "Point", "coordinates": [ 4524443.179193686693907, 9510231.74244648963213 ] } },
{ "type": "Feature", "properties": { "id": 50360, "name": "Фельдшерско-акушерский пункт, Приморская центральная районная больница", "city": "Ширшинский (Приморский район)", "street": "Ширшинский посёлок", "house": "21", "post": "164900", "x": 40.74186008, "y": 64.40986096, "cpi_id": 1582801 }, "geometry": { "type": "Point", "coordinates": [ 4535363.118076406419277, 9454615.521408706903458 ] } },
{ "type": "Feature", "properties": { "id": 50423, "name": "ДенталГуд, стоматологическая клиника", "city": "Архангельск", "street": "Северной Двины набережная", "house": "71 к1", "post": "163069", "x": 40.5223082, "y": 64.5325335, "cpi_id": 1585033 }, "geometry": { "type": "Point", "coordinates": [ 4510922.714592099189758, 9486302.264645926654339 ] } },
{ "type": "Feature", "properties": { "id": 50612, "name": "Парадиз Денталь, клиника семейной стоматологии", "city": "Архангельск", "street": "Карла Либкнехта", "house": "54", "post": "163069", "x": 40.5323437, "y": 64.54083799, "cpi_id": 1591018 }, "geometry": { "type": "Point", "coordinates": [ 4512039.861341960728168, 9488452.486661680042744 ] } },
{ "type": "Feature", "properties": { "id": 50830, "name": "Эскулап", "city": "Архангельск", "street": "Ломоносова проспект", "house": "204", "post": "163000", "x": 40.52518785, "y": 64.54836426, "cpi_id": 1597686 }, "geometry": { "type": "Point", "coordinates": [ 4511243.275763764977455, 9490401.775288105010986 ] } },
{ "type": "Feature", "properties": { "id": 51714, "name": "Стоматологический кабинет", "city": "Новодвинск (Новодвинск городской округ)", "street": "Советов", "house": "4", "post": "164900", "x": 40.83235086, "y": 64.41235714, "cpi_id": 1628064 }, "geometry": { "type": "Point", "coordinates": [ 4545436.505627501755953, 9455258.879787720739841 ] } },
{ "type": "Feature", "properties": { "id": 53473, "name": "Северодвинская городская детская клиническая больница, ГБУЗ", "city": "Северодвинск (Северодвинск городской округ)", "street": "Ломоносова", "house": "49а", "post": "164504", "x": 39.815959, "y": 64.55544781, "cpi_id": 1681546 }, "geometry": { "type": "Point", "coordinates": [ 4432292.281325865536928, 9492236.89185593277216 ] } },
{ "type": "Feature", "properties": { "id": 53668, "name": "NordClinic, медицинская клиника", "city": "Архангельск", "street": "Никольский проспект", "house": "37 к1", "post": "163020", "x": 40.50412869, "y": 64.57928692, "cpi_id": 1687604 }, "geometry": { "type": "Point", "coordinates": [ 4508898.980796035379171, 9498416.331885010004044 ] } },
{ "type": "Feature", "properties": { "id": 53978, "name": "Николь, стоматологический кабинет", "city": "Архангельск", "street": "Гагарина", "house": "8", "post": "163045", "x": 40.53801727, "y": 64.56380075, "cpi_id": 1697737 }, "geometry": { "type": "Point", "coordinates": [ 4512671.440265338867903, 9494401.478716179728508 ] } },
{ "type": "Feature", "properties": { "id": 54175, "name": "НОВОдент, стоматологический центр", "city": "Северодвинск (Северодвинск городской округ)", "street": "Ломоносова", "house": "100", "post": "164512", "x": 39.78576327, "y": 64.55238208, "cpi_id": 1703759 }, "geometry": { "type": "Point", "coordinates": [ 4428930.908038139343262, 9491442.602770984172821 ] } },
{ "type": "Feature", "properties": { "id": 55868, "name": "StomCareClinic, стоматологическая клиника", "city": "Архангельск", "street": "Садовая", "house": "48", "post": "163071", "x": 40.53992057, "y": 64.54896873, "cpi_id": 1757000 }, "geometry": { "type": "Point", "coordinates": [ 4512883.314652167260647, 9490558.355127595365047 ] } },
{ "type": "Feature", "properties": { "id": 56221, "name": "Северодвинская городская больница №1, ГБУЗ", "city": "Северодвинск (Северодвинск городской округ)", "street": "Ленина проспект", "house": "48", "post": "164507", "x": 39.83243193, "y": 64.55432815, "cpi_id": 1767986 }, "geometry": { "type": "Point", "coordinates": [ 4434126.039505336433649, 9491946.792773939669132 ] } },
{ "type": "Feature", "properties": { "id": 57125, "name": "Территория улыбки, стоматологический центр", "city": "Северодвинск (Северодвинск городской округ)", "street": "Гагарина", "house": "13", "post": "164504", "x": 39.81551269, "y": 64.56010154000001, "cpi_id": 1797740 }, "geometry": { "type": "Point", "coordinates": [ 4432242.598323933780193, 9493442.780944406986237 ] } },
{ "type": "Feature", "properties": { "id": 57161, "name": "Ваше здоровье, ООО, медицинский центр", "city": "Архангельск", "street": "Урицкого", "house": "20", "post": "163002", "x": 40.56019549, "y": 64.53054636, "cpi_id": 1798746 }, "geometry": { "type": "Point", "coordinates": [ 4515140.308422442525625, 9485787.845766000449657 ] } },
{ "type": "Feature", "properties": { "id": 58125, "name": "Парадиз премиум, клиника инновационной медицины", "city": "Архангельск", "street": "Карла Либкнехта", "house": "54", "post": "163069", "x": 40.5323437, "y": 64.54083799, "cpi_id": 1829154 }, "geometry": { "type": "Point", "coordinates": [ 4512039.861341960728168, 9488452.486661680042744 ] } },
{ "type": "Feature", "properties": { "id": 58864, "name": "Два врача, кабинет невролога", "city": "Северодвинск (Северодвинск городской округ)", "street": "Ломоносова", "house": "42а", "post": "164501", "x": 39.82746074, "y": 64.55867842000001, "cpi_id": 1851676 }, "geometry": { "type": "Point", "coordinates": [ 4433572.649165909737349, 9493073.995780639350414 ] } },
{ "type": "Feature", "properties": { "id": 59450, "name": "Архангельская городская клиническая больница №7, ГБУЗ", "city": "Архангельск", "street": "Ярославская", "house": "42 к1", "post": "163013", "x": 40.51795008, "y": 64.58530486, "cpi_id": 1870155 }, "geometry": { "type": "Point", "coordinates": [ 4510437.570892885327339, 9499977.123579576611519 ] } },
{ "type": "Feature", "properties": { "id": 59624, "name": "Психологический клуб", "city": "Архангельск", "street": "Урицкого", "house": "1", "post": "163002", "x": 40.55526881, "y": 64.52786963, "cpi_id": 1875323 }, "geometry": { "type": "Point", "coordinates": [ 4514591.872913539409637, 9485094.969170138239861 ] } },
{ "type": "Feature", "properties": { "id": 59787, "name": "Медицинский центр на Яграх", "city": "Северодвинск (Северодвинск городской округ)", "street": "Пионерская", "house": "6", "post": "164520", "x": 39.83762047, "y": 64.56881016, "cpi_id": 1881049 }, "geometry": { "type": "Point", "coordinates": [ 4434703.625136099755764, 9495699.939109519124031 ] } },
{ "type": "Feature", "properties": { "id": 59804, "name": "Fitness body, студия", "city": "Архангельск", "street": "Тимме", "house": "4 к3", "post": "163060", "x": 40.57012534, "y": 64.54205696, "cpi_id": 1881534 }, "geometry": { "type": "Point", "coordinates": [ 4516245.694268096238375, 9488768.160910435020924 ] } },
{ "type": "Feature", "properties": { "id": 61244, "name": "Архангельская городская клиническая больница №6, ГБУЗ", "city": "Архангельск", "street": "Проезжая", "house": "16 к3", "post": "163023", "x": 40.50399958, "y": 64.64336494, "cpi_id": 1928581 }, "geometry": { "type": "Point", "coordinates": [ 4508884.608336575329304, 9515053.12982976436615 ] } },
{ "type": "Feature", "properties": { "id": 61465, "name": "Центр реабилитации доктора Бубновского, клиника", "city": "Архангельск", "street": "Гайдара", "house": "2 к1", "post": "163000", "x": 40.51777855, "y": 64.55335481, "cpi_id": 1936028 }, "geometry": { "type": "Point", "coordinates": [ 4510418.476260632276535, 9491694.614254027605057 ] } },
{ "type": "Feature", "properties": { "id": 61523, "name": "Архангельская областная детская клиническая больница им. П.Г. Выжлецова, ГБУЗ", "city": "Архангельск", "street": "Обводный канал проспект", "house": "7 к7", "post": "163002", "x": 40.55957998, "y": 64.53351594, "cpi_id": 1938082 }, "geometry": { "type": "Point", "coordinates": [ 4515071.790162667632103, 9486556.606656491756439 ] } },
{ "type": "Feature", "properties": { "id": 61809, "name": "ЕвроСтом, стоматологическая клиника", "city": "Архангельск", "street": "Северной Двины набережная", "house": "38", "post": "163069", "x": 40.53570269, "y": 64.53187414, "cpi_id": 1948049 }, "geometry": { "type": "Point", "coordinates": [ 4512413.782398339360952, 9486131.5693329423666 ] } },
{ "type": "Feature", "properties": { "id": 61832, "name": "Престиж Дент, стоматологический центр", "city": "Северодвинск (Северодвинск городской округ)", "street": "Октябрьская", "house": "3", "post": "164509", "x": 39.82030863, "y": 64.59706684, "cpi_id": 1948588 }, "geometry": { "type": "Point", "coordinates": [ 4432776.479922607541084, 9503028.665646657347679 ] } },
{ "type": "Feature", "properties": { "id": 62219, "name": "Поликлиника, 1469 Военно-морской клинический госпиталь Министерства обороны РФ", "city": "Архангельск", "street": "Ломоносова проспект", "house": "260/1", "post": "163001", "x": 40.53273586, "y": 64.55904996, "cpi_id": 1960891 }, "geometry": { "type": "Point", "coordinates": [ 4512083.516393471509218, 9493170.27423682063818 ] } },
{ "type": "Feature", "properties": { "id": 62328, "name": "White & Smile, студия косметического отбеливания зубов", "city": "Архангельск", "street": "Воскресенская", "house": "17", "post": "163000", "x": 40.5278133, "y": 64.54150513, "cpi_id": 1964587 }, "geometry": { "type": "Point", "coordinates": [ 4511535.539520867168903, 9488625.252839766442776 ] } },
{ "type": "Feature", "properties": { "id": 62410, "name": "Первая городская клиническая больница им. Е.Е. Волосевич, ГБУЗ", "city": "Архангельск", "street": "Троицкий проспект", "house": "143/1", "post": "163001", "x": 40.52785369, "y": 64.5619669, "cpi_id": 1967062 }, "geometry": { "type": "Point", "coordinates": [ 4511540.035715095698833, 9493926.19667561352253 ] } },
{ "type": "Feature", "properties": { "id": 62771, "name": "Северодвинская городская больница №1, ГБУЗ", "city": "Северодвинск (Северодвинск городской округ)", "street": "Профсоюзная", "house": "36а", "post": "164521", "x": 39.84040062, "y": 64.55883356, "cpi_id": 1978421 }, "geometry": { "type": "Point", "coordinates": [ 4435013.11001843214035, 9493114.19759039580822 ] } },
{ "type": "Feature", "properties": { "id": 63178, "name": "Эскулап", "city": "Северодвинск (Северодвинск городской округ)", "street": "Ленина проспект", "house": "46", "post": "164507", "x": 39.83204575, "y": 64.55477786, "cpi_id": 1990649 }, "geometry": { "type": "Point", "coordinates": [ 4434083.050144385546446, 9492063.309265658259392 ] } },
{ "type": "Feature", "properties": { "id": 63318, "name": "Архангельская клиническая психиатрическая больница, ГБУЗ", "city": "Архангельск", "street": "Ярославская", "house": "42 к3", "post": "163013", "x": 40.518128, "y": 64.58429924000001, "cpi_id": 1994939 }, "geometry": { "type": "Point", "coordinates": [ 4510457.376856688410044, 9499716.285515174269676 ] } },
{ "type": "Feature", "properties": { "id": 63355, "name": "Дента-люкс, стоматологическая клиника", "city": "Архангельск", "street": "Карла Либкнехта", "house": "17 к1", "post": "163000", "x": 40.52374344, "y": 64.53844061, "cpi_id": 1995889 }, "geometry": { "type": "Point", "coordinates": [ 4511082.484778068959713, 9487831.683057956397533 ] } },
{ "type": "Feature", "properties": { "id": 63811, "name": "Bene Valete!, ортопедический отдел", "city": "Архангельск", "street": "Ломоносова проспект", "house": "292", "post": "163045", "x": 40.54529714, "y": 64.56277758, "cpi_id": 2011357 }, "geometry": { "type": "Point", "coordinates": [ 4513481.831686779856682, 9494136.298053309321404 ] } },
{ "type": "Feature", "properties": { "id": 64123, "name": "Кабинет психолога", "city": "Архангельск", "street": "Гайдара", "house": "2 к1", "post": "163000", "x": 40.51777855, "y": 64.55335481, "cpi_id": 2020618 }, "geometry": { "type": "Point", "coordinates": [ 4510418.476260632276535, 9491694.614254027605057 ] } },
{ "type": "Feature", "properties": { "id": 64170, "name": "Архангельская городская клиническая поликлиника №1, ГБУЗ", "city": "Архангельск", "street": "Тимме", "house": "22", "post": "163051", "x": 40.5578412, "y": 64.55232065, "cpi_id": 2022456 }, "geometry": { "type": "Point", "coordinates": [ 4514878.230058457702398, 9491426.688003487884998 ] } },
{ "type": "Feature", "properties": { "id": 64733, "name": "Виком, стоматологическая клиника", "city": "Архангельск", "street": "Карла Маркса", "house": "9", "post": "163000", "x": 40.52019829, "y": 64.54526563, "cpi_id": 2039325 }, "geometry": { "type": "Point", "coordinates": [ 4510687.840485278517008, 9489599.171275690197945 ] } },
{ "type": "Feature", "properties": { "id": 64811, "name": "Фельдшерско-акушерский пункт, Приморская центральная районная больница", "city": "Кузьмино (Приморский район)", "street": "Кузьмино деревня", "house": "14", "post": "163504", "x": 40.95234931, "y": 64.38419161, "cpi_id": 2041468 }, "geometry": { "type": "Point", "coordinates": [ 4558794.67197747528553, 9448002.968907460570335 ] } },
{ "type": "Feature", "properties": { "id": 65005, "name": "FizioStep, компания по изготовлению индивидуальных анатомических стелек", "city": "Северодвинск (Северодвинск городской округ)", "street": "Карла Маркса", "house": "11", "post": "164500", "x": 39.8056522, "y": 64.56021433, "cpi_id": 2047127 }, "geometry": { "type": "Point", "coordinates": [ 4431144.933598164469004, 9493472.00999790430069 ] } },
{ "type": "Feature", "properties": { "id": 65424, "name": "Dental Smile, стоматологическая клиника", "city": "Северодвинск (Северодвинск городской округ)", "street": "Карла Маркса", "house": "11", "post": "164500", "x": 39.8056522, "y": 64.56021433, "cpi_id": 2061138 }, "geometry": { "type": "Point", "coordinates": [ 4431144.933598164469004, 9493472.00999790430069 ] } },
{ "type": "Feature", "properties": { "id": 65511, "name": "Северодвинская городская клиническая больница №2", "city": "Северодвинск (Северодвинск городской округ)", "street": "Морской проспект", "house": "49 к1", "post": "164523", "x": 39.7820891, "y": 64.541414, "cpi_id": 2064325 }, "geometry": { "type": "Point", "coordinates": [ 4428521.90130465105176, 9488601.653073534369469 ] } },
{ "type": "Feature", "properties": { "id": 65850, "name": "Кабинет психолога", "city": "Северодвинск (Северодвинск городской округ)", "street": "Профсоюзная", "house": "11а", "post": "164520", "x": 39.8377596, "y": 64.56360207, "cpi_id": 2075114 }, "geometry": { "type": "Point", "coordinates": [ 4434719.113016851246357, 9494349.984935954213142 ] } },
{ "type": "Feature", "properties": { "id": 66065, "name": "Сознание, психологический центр", "city": "Архангельск", "street": "Троицкий проспект", "house": "39", "post": "163069", "x": 40.52035571, "y": 64.53521611, "cpi_id": 2081615 }, "geometry": { "type": "Point", "coordinates": [ 4510705.364399518817663, 9486996.782048866152763 ] } },
{ "type": "Feature", "properties": { "id": 66177, "name": "Стоматологический кабинет", "city": "Северодвинск (Северодвинск городской округ)", "street": "Чехова", "house": "2", "post": "164504", "x": 39.81432549, "y": 64.55483701, "cpi_id": 2085538 }, "geometry": { "type": "Point", "coordinates": [ 4432110.43982445821166, 9492078.634730540215969 ] } },
{ "type": "Feature", "properties": { "id": 66729, "name": "Стоматологический кабинет Похвалина Е.А. и Похвалиной Е.А.", "city": "Северодвинск (Северодвинск городской округ)", "street": "Комсомольская", "house": "8а", "post": "164521", "x": 39.85426185, "y": 64.56030903, "cpi_id": 2102173 }, "geometry": { "type": "Point", "coordinates": [ 4436556.135083802044392, 9493496.551197499036789 ] } },
{ "type": "Feature", "properties": { "id": 66894, "name": "Надежда, центр психолого-медико-социального сопровождения для детей", "city": "Архангельск", "street": "Попова", "house": "43", "post": "163000", "x": 40.53286249, "y": 64.54581124000001, "cpi_id": 2106787 }, "geometry": { "type": "Point", "coordinates": [ 4512097.612780593335629, 9489740.488011829555035 ] } },
{ "type": "Feature", "properties": { "id": 67846, "name": "Эскулап", "city": "Северодвинск (Северодвинск городской округ)", "street": "Ломоносова", "house": "44", "post": "164501", "x": 39.82745535, "y": 64.5581497, "cpi_id": 2136401 }, "geometry": { "type": "Point", "coordinates": [ 4433572.049153845757246, 9492936.988985411822796 ] } },
{ "type": "Feature", "properties": { "id": 68910, "name": "Северодвинский родильный дом, ГБУЗ", "city": "Северодвинск (Северодвинск городской округ)", "street": "Морской проспект", "house": "51", "post": "164523", "x": 39.78317658, "y": 64.54008781, "cpi_id": 2169404 }, "geometry": { "type": "Point", "coordinates": [ 4428642.959024492651224, 9488258.221043467521667 ] } },
{ "type": "Feature", "properties": { "id": 68984, "name": "Invitro, медицинская компания", "city": "Архангельск", "street": "Ломоносова проспект", "house": "13", "post": "163002", "x": 40.56353963, "y": 64.52837663, "cpi_id": 2172179 }, "geometry": { "type": "Point", "coordinates": [ 4515512.576384380459785, 9485226.201857432723045 ] } },
{ "type": "Feature", "properties": { "id": 69214, "name": "Архангельская городская клиническая больница №6, ГБУЗ", "city": "Архангельск", "street": "Ильича", "house": "39 к3", "post": "163059", "x": 40.57457935, "y": 64.59987672, "cpi_id": 2179885 }, "geometry": { "type": "Point", "coordinates": [ 4516741.512393284589052, 9503757.859451308846474 ] } },
{ "type": "Feature", "properties": { "id": 69334, "name": "Гиппократ, медицинский центр", "city": "Архангельск", "street": "Советских Космонавтов проспект", "house": "180", "post": "163072", "x": 40.54117162, "y": 64.55624089, "cpi_id": 2184046 }, "geometry": { "type": "Point", "coordinates": [ 4513022.580901123583317, 9492442.382675938308239 ] } },
{ "type": "Feature", "properties": { "id": 69493, "name": "Архангельская областная детская клиническая больница им. П.Г. Выжлецова, ГБУЗ", "city": "Архангельск", "street": "Обводный канал проспект", "house": "7 к3", "post": "163002", "x": 40.56192433, "y": 64.53455497, "cpi_id": 2189230 }, "geometry": { "type": "Point", "coordinates": [ 4515332.762010905891657, 9486825.609107486903667 ] } },
{ "type": "Feature", "properties": { "id": 69603, "name": "Диамед, ООО, многопрофильный медицинский центр", "city": "Архангельск", "street": "Фёдора Абрамова", "house": "9 к1", "post": "163009", "x": 40.60795877, "y": 64.52632329, "cpi_id": 2192522 }, "geometry": { "type": "Point", "coordinates": [ 4520457.292430654168129, 9484694.727117292582989 ] } },
{ "type": "Feature", "properties": { "id": 69704, "name": "Архангельская областная детская клиническая больница им. П.Г. Выжлецова, ГБУЗ", "city": "Архангельск", "street": "Обводный канал проспект", "house": "7 к1", "post": "163002", "x": 40.5594604, "y": 64.53504393, "cpi_id": 2195699 }, "geometry": { "type": "Point", "coordinates": [ 4515058.478577945381403, 9486952.203258991241455 ] } },
{ "type": "Feature", "properties": { "id": 70369, "name": "Северодвинская городская детская клиническая больница, ГБУЗ", "city": "Северодвинск (Северодвинск городской округ)", "street": "Победы проспект", "house": "4", "post": "164505", "x": 39.82508245, "y": 64.54134909, "cpi_id": 2216339 }, "geometry": { "type": "Point", "coordinates": [ 4433307.899134147912264, 9488584.843499906361103 ] } },
{ "type": "Feature", "properties": { "id": 70475, "name": "Северодвинская городская больница №1, ГБУЗ", "city": "Северодвинск (Северодвинск городской округ)", "street": "Ломоносова", "house": "47", "post": "164504", "x": 39.81824867, "y": 64.55573118, "cpi_id": 2219838 }, "geometry": { "type": "Point", "coordinates": [ 4432547.166224349290133, 9492310.313691399991512 ] } },
{ "type": "Feature", "properties": { "id": 70662, "name": "Биолам, лечебно-диагностический центр", "city": "Архангельск", "street": "Комсомольская", "house": "36", "post": "163001", "x": 40.53666316, "y": 64.55939198, "cpi_id": 2225903 }, "geometry": { "type": "Point", "coordinates": [ 4512520.701429665088654, 9493258.904232561588287 ] } },
{ "type": "Feature", "properties": { "id": 70759, "name": "BrainPro, центр специальных исследований", "city": "Архангельск", "street": "Вологодская", "house": "6 к1", "post": "163001", "x": 40.52053215, "y": 64.55496695, "cpi_id": 2229420 }, "geometry": { "type": "Point", "coordinates": [ 4510725.005610477179289, 9492112.30164197832346 ] } },
{ "type": "Feature", "properties": { "id": 71489, "name": "Равновесие, психологический кабинет", "city": "Северодвинск (Северодвинск городской округ)", "street": "Ломоносова", "house": "42а", "post": "164501", "x": 39.82746074, "y": 64.55867842000001, "cpi_id": 2253187 }, "geometry": { "type": "Point", "coordinates": [ 4433572.649165909737349, 9493073.995780639350414 ] } },
{ "type": "Feature", "properties": { "id": 71570, "name": "Fresenius medical care, центр гемодиализа", "city": "Северодвинск (Северодвинск городской округ)", "street": "Архангельское шоссе", "house": "48", "post": "164520", "x": 39.83073016, "y": 64.57466915000001, "cpi_id": 2256191 }, "geometry": { "type": "Point", "coordinates": [ 4433936.599335495382547, 9497218.917207956314087 ] } },
{ "type": "Feature", "properties": { "id": 71716, "name": "Северодвинская городская детская клиническая больница, ГБУЗ", "city": "Северодвинск (Северодвинск городской округ)", "street": "Комсомольская", "house": "41", "post": "164521", "x": 39.84036439, "y": 64.55717601000001, "cpi_id": 2260517 }, "geometry": { "type": "Point", "coordinates": [ 4435009.07691327854991, 9492684.68441965430975 ] } },
{ "type": "Feature", "properties": { "id": 72715, "name": "Никс Трейдинг, стоматологическая клиника", "city": "Архангельск", "street": "Суворова", "house": "16", "post": "163001", "x": 40.52922687, "y": 64.5581911, "cpi_id": 2291516 }, "geometry": { "type": "Point", "coordinates": [ 4511692.897413466125727, 9492947.716838762164116 ] } },
{ "type": "Feature", "properties": { "id": 72736, "name": "Доктор Плюс, многопрофильный медицинский центр", "city": "Северодвинск (Северодвинск городской округ)", "street": "Карла Маркса", "house": "21", "post": "164500", "x": 39.79600182, "y": 64.55838364, "cpi_id": 2292318 }, "geometry": { "type": "Point", "coordinates": [ 4430070.658210594207048, 9492997.609344705939293 ] } },
{ "type": "Feature", "properties": { "id": 73788, "name": "Северодвинская городская детская клиническая больница, ГБУЗ", "city": "Северодвинск (Северодвинск городской округ)", "street": "Ломоносова", "house": "102", "post": "164514", "x": 39.78219901, "y": 64.55126421, "cpi_id": 2325457 }, "geometry": { "type": "Point", "coordinates": [ 4428534.136429879814386, 9491153.000028222799301 ] } },
{ "type": "Feature", "properties": { "id": 74534, "name": "Архангельская городская клиническая больница №4, ГБУЗ", "city": "Архангельск", "street": "Силикатчиков", "house": "6", "post": "163058", "x": 40.77262946, "y": 64.48398452000001, "cpi_id": 2348873 }, "geometry": { "type": "Point", "coordinates": [ 4538788.349790036678314, 9473744.903903253376484 ] } },
{ "type": "Feature", "properties": { "id": 74824, "name": "Стоматологический кабинет", "city": "Северодвинск (Северодвинск городской округ)", "street": "Макаренко", "house": "5", "post": "164509", "x": 39.80244321, "y": 64.59117344000001, "cpi_id": 2357978 }, "geometry": { "type": "Point", "coordinates": [ 4430787.710465397685766, 9501499.510105133056641 ] } },
{ "type": "Feature", "properties": { "id": 76221, "name": "Пластический хирург Маяков А.А.", "city": "Архангельск", "street": "Советская", "house": "5", "post": "163020", "x": 40.5230458, "y": 64.5703328, "cpi_id": 2402634 }, "geometry": { "type": "Point", "coordinates": [ 4511004.823848512023687, 9496094.661191493272781 ] } },
{ "type": "Feature", "properties": { "id": 76396, "name": "Северодвинская городская больница №1, ГБУЗ", "city": "Северодвинск (Северодвинск городской округ)", "street": "Юбилейная", "house": "13", "post": "164505", "x": 39.8214387, "y": 64.54210736, "cpi_id": 2408580 }, "geometry": { "type": "Point", "coordinates": [ 4432902.27873956412077, 9488781.213202357292175 ] } },
{ "type": "Feature", "properties": { "id": 76832, "name": "Норд-МЕДИКА, ООО, неврологический центр диагностики и реабилитации", "city": "Архангельск", "street": "Красноармейская", "house": "20", "post": "163002", "x": 40.56481962, "y": 64.53256824, "cpi_id": 2421902 }, "geometry": { "type": "Point", "coordinates": [ 4515655.064219396561384, 9486311.258261829614639 ] } },
{ "type": "Feature", "properties": { "id": 78389, "name": "Dentist, стоматологический центр", "city": "Северодвинск (Северодвинск городской округ)", "street": "Ломоносова", "house": "97", "post": "164522", "x": 39.76807628, "y": 64.54797801, "cpi_id": 2470433 }, "geometry": { "type": "Point", "coordinates": [ 4426962.001317676156759, 9490301.724227875471115 ] } },
{ "type": "Feature", "properties": { "id": 78460, "name": "Центральная медико-санитарная часть №58 Федерального медико-биологического агентства России", "city": "Северодвинск (Северодвинск городской округ)", "street": "Кирилкина", "house": "4 к3", "post": "164502", "x": 39.78756206, "y": 64.53886679, "cpi_id": 2472820 }, "geometry": { "type": "Point", "coordinates": [ 4429131.148424971848726, 9487942.038746766746044 ] } },
{ "type": "Feature", "properties": { "id": 78938, "name": "Стоматологический кабинет", "city": "Архангельск", "street": "Серафимовича", "house": "39", "post": "163046", "x": 40.53650015, "y": 64.53608588, "cpi_id": 2487677 }, "geometry": { "type": "Point", "coordinates": [ 4512502.555239468812943, 9487221.976812310516834 ] } },
{ "type": "Feature", "properties": { "id": 78987, "name": "Доктор Соран, медицинская многопрофильная клиника", "city": "Архангельск", "street": "Карельская", "house": "37", "post": "163001", "x": 40.53551982, "y": 64.55861702, "cpi_id": 2489469 }, "geometry": { "type": "Point", "coordinates": [ 4512393.4254030585289, 9493058.085110828280449 ] } },
{ "type": "Feature", "properties": { "id": 78990, "name": "Северодвинская городская клиническая больница №2", "city": "Северодвинск (Северодвинск городской округ)", "street": "Карла Маркса", "house": "48", "post": "164514", "x": 39.77002595, "y": 64.55519843, "cpi_id": 2489539 }, "geometry": { "type": "Point", "coordinates": [ 4427179.037589285522699, 9492172.277541019022465 ] } },
{ "type": "Feature", "properties": { "id": 79372, "name": "Женьшень, аптека, ГУП Фармация", "city": "Северодвинск (Северодвинск городской округ)", "street": "Ломоносова", "house": "97", "post": "164522", "x": 39.76807628, "y": 64.54797801, "cpi_id": 2501933 }, "geometry": { "type": "Point", "coordinates": [ 4426962.001317676156759, 9490301.724227875471115 ] } },
{ "type": "Feature", "properties": { "id": 80279, "name": "Кабинет психолога", "city": "Архангельск", "street": "Ленина площадь", "house": "4", "post": "163069", "x": 40.51817341, "y": 64.53862877, "cpi_id": 2529254 }, "geometry": { "type": "Point", "coordinates": [ 4510462.431874759495258, 9487880.405278198421001 ] } },
{ "type": "Feature", "properties": { "id": 80460, "name": "Первая городская клиническая больница им. Е.Е. Волосевич, ГБУЗ", "city": "Архангельск", "street": "Северной Двины набережная", "house": "125", "post": "163001", "x": 40.52711858, "y": 64.56295704, "cpi_id": 2534591 }, "geometry": { "type": "Point", "coordinates": [ 4511458.203644227236509, 9494182.808980219066143 ] } },
{ "type": "Feature", "properties": { "id": 80475, "name": "Invitro, медицинская компания", "city": "Северодвинск (Северодвинск городской округ)", "street": "Железнодорожная", "house": "34", "post": "164521", "x": 39.85642633, "y": 64.5613773, "cpi_id": 2534787 }, "geometry": { "type": "Point", "coordinates": [ 4436797.083895232528448, 9493773.395829580724239 ] } },
{ "type": "Feature", "properties": { "id": 80486, "name": "Офтальмологическая Лазерная Клиника, ООО", "city": "Архангельск", "street": "Обводный канал проспект", "house": "9 к2", "post": "163002", "x": 40.55805208, "y": 64.53508118000001, "cpi_id": 2535033 }, "geometry": { "type": "Point", "coordinates": [ 4514901.705112673342228, 9486961.847560428082943 ] } },
{ "type": "Feature", "properties": { "id": 80803, "name": "Северодвинская городская детская клиническая больница, ГБУЗ", "city": "Северодвинск (Северодвинск городской округ)", "street": "Ломоносова", "house": "7", "post": "164521", "x": 39.85184279, "y": 64.56136633, "cpi_id": 2544290 }, "geometry": { "type": "Point", "coordinates": [ 4436286.846556399017572, 9493770.552873663604259 ] } },
{ "type": "Feature", "properties": { "id": 80898, "name": "АрхМед, магазин медицинских товаров", "city": "Архангельск", "street": "Троицкий проспект", "house": "145", "post": "163001", "x": 40.53016706, "y": 64.56263985, "cpi_id": 2547072 }, "geometry": { "type": "Point", "coordinates": [ 4511797.558885514736176, 9494100.602563075721264 ] } },
{ "type": "Feature", "properties": { "id": 81126, "name": "Кабинет детского психолога", "city": "Архангельск", "street": "Чумбарова-Лучинского проспект", "house": "39", "post": "", "x": 40.5239952, "y": 64.53640572, "cpi_id": 2553810 }, "geometry": { "type": "Point", "coordinates": [ 4511110.510573074221611, 9487304.789352811872959 ] } },
{ "type": "Feature", "properties": { "id": 81451, "name": "Твоя улыбка, стоматологическая клиника", "city": "Архангельск", "street": "Ломоносова проспект", "house": "216", "post": "163000", "x": 40.52631168, "y": 64.54996739000001, "cpi_id": 2564054 }, "geometry": { "type": "Point", "coordinates": [ 4511368.379947099834681, 9490817.052199639379978 ] } },
{ "type": "Feature", "properties": { "id": 81581, "name": "Центр пародонтологии и имплантации, ООО", "city": "Архангельск", "street": "Ломоносова проспект", "house": "119 к2", "post": "", "x": 40.52984511, "y": 64.5361157, "cpi_id": 2568091 }, "geometry": { "type": "Point", "coordinates": [ 4511761.719575453549623, 9487229.697725363075733 ] } },
{ "type": "Feature", "properties": { "id": 81938, "name": "Центр гигиены и эпидемиологии в Архангельской области, ФБУЗ", "city": "Новодвинск (Новодвинск городской округ)", "street": "3-й Пятилетки", "house": "11", "post": "164900", "x": 40.80985736, "y": 64.41240107, "cpi_id": 2579340 }, "geometry": { "type": "Point", "coordinates": [ 4542932.540661346167326, 9455270.202705889940262 ] } },
{ "type": "Feature", "properties": { "id": 82554, "name": "Комфорт+, ООО, стоматологический центр", "city": "Северодвинск (Северодвинск городской округ)", "street": "Карла Маркса", "house": "21", "post": "164500", "x": 39.79600182, "y": 64.55838364, "cpi_id": 2597214 }, "geometry": { "type": "Point", "coordinates": [ 4430070.658210594207048, 9492997.609344705939293 ] } },
{ "type": "Feature", "properties": { "id": 82907, "name": "Invitro, медицинская компания", "city": "Архангельск", "street": "Прокопия Галушина", "house": "5", "post": "163009", "x": 40.6112454, "y": 64.52576366, "cpi_id": 2608075 }, "geometry": { "type": "Point", "coordinates": [ 4520823.158408682793379, 9484549.882633216679096 ] } },
{ "type": "Feature", "properties": { "id": 83034, "name": "Студия 32, стоматологический центр", "city": "Архангельск", "street": "Воскресенская", "house": "87", "post": "163046", "x": 40.54440559, "y": 64.54478748, "cpi_id": 2611750 }, "geometry": { "type": "Point", "coordinates": [ 4513382.584794763475657, 9489475.329467058181763 ] } },
{ "type": "Feature", "properties": { "id": 83403, "name": "Северодвинская городская клиническая больница №2", "city": "Северодвинск (Северодвинск городской округ)", "street": "Морской проспект", "house": "38", "post": "164515", "x": 39.77652203, "y": 64.54653905000001, "cpi_id": 2623048 }, "geometry": { "type": "Point", "coordinates": [ 4427902.177907042205334, 9489929.000199995934963 ] } },
{ "type": "Feature", "properties": { "id": 84655, "name": "Архангельский клинический кожно-венерологический диспансер, ГАУЗ", "city": "Архангельск", "street": "Сибиряковцев проезд", "house": "2 к1", "post": "163045", "x": 40.54305151, "y": 64.56316881, "cpi_id": 2663660 }, "geometry": { "type": "Point", "coordinates": [ 4513231.849298670887947, 9494237.694133944809437 ] } },
{ "type": "Feature", "properties": { "id": 84857, "name": "Снег стоматология, ООО, медицинский центр", "city": "Северодвинск (Северодвинск городской округ)", "street": "Морской проспект", "house": "36", "post": "164515", "x": 39.77785986, "y": 64.54719858, "cpi_id": 2670020 }, "geometry": { "type": "Point", "coordinates": [ 4428051.104461401700974, 9490099.831331610679626 ] } },
{ "type": "Feature", "properties": { "id": 86045, "name": "Доверие, центр платных медицинских услуг, ГБУЗ Первая ГКБ им. Е.Е. Волосевич", "city": "Архангельск", "street": "Гайдара", "house": "3", "post": "163001", "x": 40.51940077, "y": 64.55364945, "cpi_id": 2706691 }, "geometry": { "type": "Point", "coordinates": [ 4510599.060964982956648, 9491770.950328014791012 ] } },
{ "type": "Feature", "properties": { "id": 86078, "name": "Северодвинская городская больница №1, ГБУЗ", "city": "Северодвинск (Северодвинск городской округ)", "street": "Капитана Воронина", "house": "34", "post": "164504", "x": 39.80982748, "y": 64.55672081, "cpi_id": 2707744 }, "geometry": { "type": "Point", "coordinates": [ 4431609.72364167496562, 9492566.73514612019062 ] } },
{ "type": "Feature", "properties": { "id": 86539, "name": "Новодвинская центральная городская больница, ГБУЗ", "city": "Новодвинск (Новодвинск городской округ)", "street": "3-й Пятилетки", "house": "9д", "post": "164900", "x": 40.80867921, "y": 64.41141859, "cpi_id": 2721871 }, "geometry": { "type": "Point", "coordinates": [ 4542801.38960325345397, 9455016.973696768283844 ] } },
{ "type": "Feature", "properties": { "id": 87070, "name": "Первая городская клиническая больница им. Е.Е. Волосевич, ГБУЗ", "city": "Архангельск", "street": "Красина", "house": "3 к1", "post": "163044", "x": 40.34302782, "y": 64.52916079000001, "cpi_id": 2736775 }, "geometry": { "type": "Point", "coordinates": [ 4490965.313981279730797, 9485429.179881408810616 ] } },
{ "type": "Feature", "properties": { "id": 87559, "name": "Архангельская городская клиническая поликлиника №1, ГБУЗ", "city": "Талажский авиагородок", "street": "Аэропорт Архангельск", "house": "7", "post": "163053", "x": 40.71257517, "y": 64.59267832, "cpi_id": 2751256 }, "geometry": { "type": "Point", "coordinates": [ 4532103.136807285249233, 9501889.948569931089878 ] } },
{ "type": "Feature", "properties": { "id": 87685, "name": "Тонус, центр диагностики", "city": "Архангельск", "street": "Урицкого", "house": "47", "post": "163060", "x": 40.56702931, "y": 64.53779532, "cpi_id": 2755173 }, "geometry": { "type": "Point", "coordinates": [ 4515901.045785017311573, 9487664.593978084623814 ] } },
{ "type": "Feature", "properties": { "id": 87817, "name": "Импластом, стоматологическая клиника", "city": "Архангельск", "street": "Попова", "house": "32", "post": "163000", "x": 40.53099037, "y": 64.54515332, "cpi_id": 2758799 }, "geometry": { "type": "Point", "coordinates": [ 4511889.20933547988534, 9489570.082565411925316 ] } },
{ "type": "Feature", "properties": { "id": 88114, "name": "Александрия, стоматологическая клиника", "city": "Новодвинск (Новодвинск городской округ)", "street": "3-й Пятилетки", "house": "23", "post": "164901", "x": 40.79990468, "y": 64.41659091, "cpi_id": 2767836 }, "geometry": { "type": "Point", "coordinates": [ 4541824.61339170858264, 9456350.213547304272652 ] } },
{ "type": "Feature", "properties": { "id": 88362, "name": "Доктор ЛОР, медицинский центр", "city": "Архангельск", "street": "Тимме", "house": "25", "post": "163071", "x": 40.55533431, "y": 64.5531102, "cpi_id": 2775584 }, "geometry": { "type": "Point", "coordinates": [ 4514599.164340179413557, 9491631.240705333650112 ] } },
{ "type": "Feature", "properties": { "id": 88379, "name": "Архангельская областная детская клиническая больница им. П.Г. Выжлецова, ГБУЗ", "city": "Архангельск", "street": "Обводный канал проспект", "house": "7 к2", "post": "163002", "x": 40.56042558, "y": 64.53491012000001, "cpi_id": 2776247 }, "geometry": { "type": "Point", "coordinates": [ 4515165.921924084424973, 9486917.558965712785721 ] } },
{ "type": "Feature", "properties": { "id": 88867, "name": "Архангельская городская клиническая больница №6, ГБУЗ", "city": "Архангельск", "street": "Ильича", "house": "60", "post": "163059", "x": 40.58188869, "y": 64.60264605, "cpi_id": 2791118 }, "geometry": { "type": "Point", "coordinates": [ 4517555.184400115162134, 9504476.603791944682598 ] } },
{ "type": "Feature", "properties": { "id": 89247, "name": "Архангельская городская клиническая больница №4, ГБУЗ", "city": "Архангельск", "street": "Дачная", "house": "40 к1", "post": "163057", "x": 40.66629528, "y": 64.51519893, "cpi_id": 2802858 }, "geometry": { "type": "Point", "coordinates": [ 4526951.283018514513969, 9481816.056453853845596 ] } },
{ "type": "Feature", "properties": { "id": 89524, "name": "ПолиДент, медицинский центр", "city": "Архангельск", "street": "Попова", "house": "14", "post": "163000", "x": 40.51948503, "y": 64.54667538, "cpi_id": 2811504 }, "geometry": { "type": "Point", "coordinates": [ 4510608.440745282918215, 9489964.31198987364769 ] } },
{ "type": "Feature", "properties": { "id": 89689, "name": "Архангельская областная клиническая стоматологическая поликлиника, ГАУЗ", "city": "Архангельск", "street": "Вологодская", "house": "17", "post": "163001", "x": 40.52496579, "y": 64.55506782, "cpi_id": 2816905 }, "geometry": { "type": "Point", "coordinates": [ 4511218.556157641112804, 9492138.436748437583447 ] } },
{ "type": "Feature", "properties": { "id": 89822, "name": "Цихея, стоматологическая клиника", "city": "Архангельск", "street": "Никольский проспект", "house": "148", "post": "163020", "x": 40.50480597, "y": 64.58785569, "cpi_id": 2821239 }, "geometry": { "type": "Point", "coordinates": [ 4508974.375260759145021, 9500638.801969163119793 ] } },
{ "type": "Feature", "properties": { "id": 90611, "name": "Центр амбулаторного гемодиализа Архангельск, ООО", "city": "Архангельск", "street": "Прокопия Галушина", "house": "23", "post": "163065", "x": 40.62182719, "y": 64.5346135, "cpi_id": 2845467 }, "geometry": { "type": "Point", "coordinates": [ 4522001.117883160710335, 9486840.762693151831627 ] } },
{ "type": "Feature", "properties": { "id": 91156, "name": "Эстетика клиник, ООО, центр стоматологии", "city": "Северодвинск (Северодвинск городской округ)", "street": "Первомайская", "house": "50", "post": "164512", "x": 39.78945374, "y": 64.56332727, "cpi_id": 2861647 }, "geometry": { "type": "Point", "coordinates": [ 4429341.729279328137636, 9494278.763032004237175 ] } },
{ "type": "Feature", "properties": { "id": 91823, "name": "Первая городская клиническая больница им. Е.Е. Волосевич, ГБУЗ", "city": "Архангельск", "street": "Мира", "house": "22", "post": "163044", "x": 40.33786417, "y": 64.53136353, "cpi_id": 2881574 }, "geometry": { "type": "Point", "coordinates": [ 4490390.499092645943165, 9485999.385297782719135 ] } },
{ "type": "Feature", "properties": { "id": 92019, "name": "Дент-Мастер, ООО, стоматологическая клиника", "city": "Архангельск", "street": "Троицкий проспект", "house": "158", "post": "163001", "x": 40.52390284, "y": 64.55579424, "cpi_id": 2888048 }, "geometry": { "type": "Point", "coordinates": [ 4511100.229104898869991, 9492326.652789980173111 ] } },
{ "type": "Feature", "properties": { "id": 92666, "name": "Черные глаза, магазин очков", "city": "Северодвинск (Северодвинск городской округ)", "street": "Южная", "house": "1", "post": "164507", "x": 39.85829848, "y": 64.55767794, "cpi_id": 2908091 }, "geometry": { "type": "Point", "coordinates": [ 4437005.490679912269115, 9492814.744433425366879 ] } },
{ "type": "Feature", "properties": { "id": 92735, "name": "Сгком, ООО, Медицинский центр", "city": "Северодвинск (Северодвинск городской округ)", "street": "Юбилейная", "house": "19а", "post": "164505", "x": 39.81599872, "y": 64.54300238, "cpi_id": 2910007 }, "geometry": { "type": "Point", "coordinates": [ 4432296.702936038374901, 9489013.004170678555965 ] } },
{ "type": "Feature", "properties": { "id": 92846, "name": "Мастерская улыбки, стоматологический кабинет", "city": "Северодвинск (Северодвинск городской округ)", "street": "Георгия Седова", "house": "10", "post": "164501", "x": 39.81782803, "y": 64.56129123, "cpi_id": 2914266 }, "geometry": { "type": "Point", "coordinates": [ 4432500.340793740004301, 9493751.090188823640347 ] } },
{ "type": "Feature", "properties": { "id": 93287, "name": "Invitro, медицинская компания", "city": "Архангельск", "street": "Тимме", "house": "2", "post": "163060", "x": 40.57233793, "y": 64.54056346, "cpi_id": 2929665 }, "geometry": { "type": "Point", "coordinates": [ 4516491.998660229146481, 9488381.394117049872875 ] } },
{ "type": "Feature", "properties": { "id": 93486, "name": "Кабинет психолога", "city": "Архангельск", "street": "Троицкий проспект", "house": "63", "post": "163000", "x": 40.51605615, "y": 64.54408271, "cpi_id": 2935509 }, "geometry": { "type": "Point", "coordinates": [ 4510226.739569690078497, 9489292.79658254981041 ] } },
{ "type": "Feature", "properties": { "id": 94281, "name": "Центр психолого-педагогической, медицинской и социальной помощи, МБОУ", "city": "Северодвинск (Северодвинск городской округ)", "street": "Советская", "house": "35Б", "post": "164520", "x": 39.83284632, "y": 64.56500245, "cpi_id": 2960158 }, "geometry": { "type": "Point", "coordinates": [ 4434172.169189125299454, 9494712.942707233130932 ] } },
{ "type": "Feature", "properties": { "id": 94617, "name": "Любимый Доктор, стоматологический центр", "city": "Архангельск", "street": "Троицкий проспект", "house": "67", "post": "163000", "x": 40.51622744, "y": 64.54473722, "cpi_id": 2970789 }, "geometry": { "type": "Point", "coordinates": [ 4510245.807485271245241, 9489462.31215238571167 ] } },
{ "type": "Feature", "properties": { "id": 94975, "name": "Северодвинская стоматологическая поликлиника, ГАУЗ", "city": "Северодвинск (Северодвинск городской округ)", "street": "Морской проспект", "house": "28", "post": "164515", "x": 39.77367884, "y": 64.54833029, "cpi_id": 2980848 }, "geometry": { "type": "Point", "coordinates": [ 4427585.675444006919861, 9490392.975918628275394 ] } },
{ "type": "Feature", "properties": { "id": 95881, "name": "Центр лечебной физкультуры", "city": "Новодвинск (Новодвинск городской округ)", "street": "Советов", "house": "2", "post": "164900", "x": 40.83625418, "y": 64.41368608000001, "cpi_id": 3009040 }, "geometry": { "type": "Point", "coordinates": [ 4545871.021222300827503, 9455601.420904614031315 ] } },
{ "type": "Feature", "properties": { "id": 95893, "name": "Первая городская клиническая больница им. Е.Е. Волосевич, ГБУЗ", "city": "Архангельск", "street": "Дзержинского проспект", "house": "11", "post": "163051", "x": 40.57145533, "y": 64.54940321, "cpi_id": 3009445 }, "geometry": { "type": "Point", "coordinates": [ 4516393.748077657073736, 9490670.903483472764492 ] } },
{ "type": "Feature", "properties": { "id": 96009, "name": "Архангельская городская клиническая поликлиника №2, ГБУЗ", "city": "Архангельск", "street": "Ломоносова проспект", "house": "42", "post": "163002", "x": 40.55273689, "y": 64.53156217, "cpi_id": 3012495 }, "geometry": { "type": "Point", "coordinates": [ 4514310.020868413150311, 9486050.807883828878403 ] } },
{ "type": "Feature", "properties": { "id": 96591, "name": "Женская консультация, Архангельская городская клиническая больница №7", "city": "Архангельск", "street": "Ярославская", "house": "42", "post": "163013", "x": 40.51898172, "y": 64.58488533000001, "cpi_id": 3030662 }, "geometry": { "type": "Point", "coordinates": [ 4510552.41253237426281, 9499868.304571352899075 ] } },
{ "type": "Feature", "properties": { "id": 96942, "name": "Центр ЭКО", "city": "Архангельск", "street": "Суфтина", "house": "18", "post": "163046", "x": 40.54757199, "y": 64.54315306, "cpi_id": 3041657 }, "geometry": { "type": "Point", "coordinates": [ 4513735.066830411553383, 9489052.027804329991341 ] } },
{ "type": "Feature", "properties": { "id": 97463, "name": "Гемотест, медицинская лаборатория", "city": "Северодвинск (Северодвинск городской округ)", "street": "Ломоносова", "house": "90", "post": "164512", "x": 39.79122872, "y": 64.55241917, "cpi_id": 3058648 }, "geometry": { "type": "Point", "coordinates": [ 4429539.31914909183979, 9491452.211753465235233 ] } },
{ "type": "Feature", "properties": { "id": 97566, "name": "Альтернатива, диагностический кабинет", "city": "Архангельск", "street": "Володарского", "house": "78 к1", "post": "163046", "x": 40.54505233, "y": 64.54150333, "cpi_id": 3061303 }, "geometry": { "type": "Point", "coordinates": [ 4513454.579562239348888, 9488624.78669635206461 ] } },
{ "type": "Feature", "properties": { "id": 97694, "name": "Яркие дети, детская студия развития", "city": "Северодвинск (Северодвинск городской округ)", "street": "Дзержинского", "house": "3", "post": "164509", "x": 39.79841294, "y": 64.59494348, "cpi_id": 3066053 }, "geometry": { "type": "Point", "coordinates": [ 4430339.062861241400242, 9502477.681049160659313 ] } },
{ "type": "Feature", "properties": { "id": 98226, "name": "Новодвинская центральная городская больница, ГБУЗ", "city": "Новодвинск (Новодвинск городской округ)", "street": "3-й Пятилетки", "house": "9", "post": "164900", "x": 40.81248684, "y": 64.41237439, "cpi_id": 3082843 }, "geometry": { "type": "Point", "coordinates": [ 4543225.253035996109247, 9455263.325957626104355 ] } },
{ "type": "Feature", "properties": { "id": 99896, "name": "Архангельская областная клиническая стоматологическая поликлиника, ГАУЗ", "city": "Архангельск", "street": "Сибиряковцев проезд", "house": "17", "post": "163045", "x": 40.55483271, "y": 64.56316078, "cpi_id": 3133213 }, "geometry": { "type": "Point", "coordinates": [ 4514543.326483596116304, 9494235.612963654100895 ] } },
{ "type": "Feature", "properties": { "id": 101122, "name": "Дента, стоматологический центр", "city": "Северодвинск (Северодвинск городской округ)", "street": "Плюснина", "house": "5", "post": "164501", "x": 39.82049169, "y": 64.56187931, "cpi_id": 3170695 }, "geometry": { "type": "Point", "coordinates": [ 4432796.858068589121103, 9493903.496625788509846 ] } },
{ "type": "Feature", "properties": { "id": 101451, "name": "Северодвинская городская детская клиническая больница, ГБУЗ", "city": "Северодвинск (Северодвинск городской округ)", "street": "Ленина проспект", "house": "13", "post": "164501", "x": 39.82572315, "y": 64.56370996, "cpi_id": 3180933 }, "geometry": { "type": "Point", "coordinates": [ 4433379.22153190150857, 9494377.947764068841934 ] } },
{ "type": "Feature", "properties": { "id": 101767, "name": "Invitro, медицинская компания", "city": "Архангельск", "street": "Никольский проспект", "house": "37 к1", "post": "163020", "x": 40.50412869, "y": 64.57928692, "cpi_id": 3191299 }, "geometry": { "type": "Point", "coordinates": [ 4508898.980796035379171, 9498416.331885010004044 ] } },
{ "type": "Feature", "properties": { "id": 102527, "name": "Риал, ООО, медицинский центр, г. Северодвинск", "city": "Северодвинск (Северодвинск городской округ)", "street": "Пионерская", "house": "6", "post": "164520", "x": 39.83762047, "y": 64.56881016, "cpi_id": 3215790 }, "geometry": { "type": "Point", "coordinates": [ 4434703.625136099755764, 9495699.939109519124031 ] } },
{ "type": "Feature", "properties": { "id": 102822, "name": "Архангельская детская стоматологическая поликлиника, ГАУЗ", "city": "Архангельск", "street": "Приорова проезд", "house": "6 к1", "post": "163071", "x": 40.55012423, "y": 64.54858168, "cpi_id": 3224439 }, "geometry": { "type": "Point", "coordinates": [ 4514019.180887594819069, 9490458.094620905816555 ] } },
{ "type": "Feature", "properties": { "id": 103619, "name": "Веселый крокодил, стоматология", "city": "Архангельск", "street": "Троицкий проспект", "house": "63", "post": "163000", "x": 40.51605615, "y": 64.54408271, "cpi_id": 3249787 }, "geometry": { "type": "Point", "coordinates": [ 4510226.739569690078497, 9489292.79658254981041 ] } },
{ "type": "Feature", "properties": { "id": 104359, "name": "МБМ, ООО, магазин оптики", "city": "Архангельск", "street": "Чумбарова-Лучинского проспект", "house": "2", "post": "", "x": 40.53800316, "y": 64.53253784, "cpi_id": 45431 }, "geometry": { "type": "Point", "coordinates": [ 4512669.869547329843044, 9486303.388200089335442 ] } },
{ "type": "Feature", "properties": { "id": 104503, "name": "Приморская центральная районная больница, ГБУЗ", "city": "Катунино (Приморский район)", "street": "Стрельцова", "house": "3", "post": "163513", "x": 40.62524694, "y": 64.38968933, "cpi_id": 50860 }, "geometry": { "type": "Point", "coordinates": [ 4522381.802711807191372, 9449418.688821010291576 ] } },
{ "type": "Feature", "properties": { "id": 104750, "name": "Дента, стоматологический центр", "city": "Северодвинск (Северодвинск городской округ)", "street": "Индустриальная", "house": "62", "post": "164504", "x": 39.81364611, "y": 64.55939439, "cpi_id": 73307 }, "geometry": { "type": "Point", "coordinates": [ 4432034.811588801443577, 9493259.528756394982338 ] } },
{ "type": "Feature", "properties": { "id": 105922, "name": "Дентамед, ООО, стоматологический центр", "city": "Архангельск", "street": "Свободы", "house": "53", "post": "163000", "x": 40.52846736, "y": 64.54271002, "cpi_id": 150606 }, "geometry": { "type": "Point", "coordinates": [ 4511608.349147010594606, 9488937.28836976736784 ] } },
{ "type": "Feature", "properties": { "id": 105944, "name": "Приморская центральная районная больница, ГБУЗ", "city": "Боброво (Приморский район)", "street": "Неманова", "house": "8", "post": "163505", "x": 41.15265376, "y": 64.3561961, "cpi_id": 151313 }, "geometry": { "type": "Point", "coordinates": [ 4581092.461355108767748, 9440798.226414166390896 ] } },
{ "type": "Feature", "properties": { "id": 106083, "name": "Архком, ООО, стоматологический центр", "city": "Архангельск", "street": "Садовая", "house": "53", "post": "163071", "x": 40.5371582, "y": 64.55005163, "cpi_id": 163115 }, "geometry": { "type": "Point", "coordinates": [ 4512575.809030383825302, 9490838.874515607953072 ] } },
{ "type": "Feature", "properties": { "id": 106142, "name": "Архангельская клиническая офтальмологическая больница", "city": "Архангельск", "street": "Обводный канал проспект", "house": "9 к2", "post": "163002", "x": 40.55805208, "y": 64.53508118000001, "cpi_id": 165464 }, "geometry": { "type": "Point", "coordinates": [ 4514901.705112673342228, 9486961.847560428082943 ] } },
{ "type": "Feature", "properties": { "id": 106296, "name": "Архангельская областная клиническая больница, ГБУЗ", "city": "Архангельск", "street": "Самойло", "house": "17 к1", "post": "163045", "x": 40.54690162, "y": 64.56222134, "cpi_id": 183882 }, "geometry": { "type": "Point", "coordinates": [ 4513660.44158336520195, 9493992.138414636254311 ] } },
{ "type": "Feature", "properties": { "id": 106668, "name": "Приморская центральная районная больница, ГБУЗ", "city": "Архангельск", "street": "Ломоносова проспект", "house": "271", "post": "163001", "x": 40.52909453, "y": 64.55759821, "cpi_id": 213827 }, "geometry": { "type": "Point", "coordinates": [ 4511678.165392059832811, 9492794.084649778902531 ] } },
{ "type": "Feature", "properties": { "id": 107010, "name": "Эскулап", "city": "Архангельск", "street": "Логинова", "house": "21/1", "post": "163000", "x": 40.53181424, "y": 64.54845102, "cpi_id": 237310 }, "geometry": { "type": "Point", "coordinates": [ 4511980.922124367207289, 9490424.249088168144226 ] } },
{ "type": "Feature", "properties": { "id": 108038, "name": "Пульс, многопрофильная клиника", "city": "Северодвинск (Северодвинск городской округ)", "street": "Ломоносова", "house": "42а", "post": "164501", "x": 39.82746074, "y": 64.55867842000001, "cpi_id": 312726 }, "geometry": { "type": "Point", "coordinates": [ 4433572.649165909737349, 9493073.995780639350414 ] } },
{ "type": "Feature", "properties": { "id": 108358, "name": "Архангельская областная клиническая стоматологическая поликлиника, ГАУЗ", "city": "Архангельск", "street": "Папанина", "house": "9", "post": "163057", "x": 40.66626731, "y": 64.51372488, "cpi_id": 336683 }, "geometry": { "type": "Point", "coordinates": [ 4526948.169412355870008, 9481434.701868698000908 ] } },
{ "type": "Feature", "properties": { "id": 108578, "name": "Мистер ПрезиДент, стоматологическая клиника", "city": "Архангельск", "street": "Чумбарова-Лучинского проспект", "house": "7 к1", "post": "", "x": 40.53398367, "y": 64.53250506000001, "cpi_id": 358026 }, "geometry": { "type": "Point", "coordinates": [ 4512222.421967275440693, 9486294.902005158364773 ] } },
{ "type": "Feature", "properties": { "id": 108739, "name": "Гемотест, лаборатория", "city": "Архангельск", "street": "Тимме", "house": "12", "post": "163051", "x": 40.56337277, "y": 64.54750808, "cpi_id": 363785 }, "geometry": { "type": "Point", "coordinates": [ 4515494.001614153385162, 9490179.999291554093361 ] } },
{ "type": "Feature", "properties": { "id": 109212, "name": "Бюро лицензионных услуг, ООО, компания по проведению предрейсовых осмотров", "city": "Архангельск", "street": "Тимме", "house": "23", "post": "163071", "x": 40.55626755, "y": 64.55231339, "cpi_id": 407451 }, "geometry": { "type": "Point", "coordinates": [ 4514703.052141770720482, 9491424.80714613199234 ] } },
{ "type": "Feature", "properties": { "id": 109540, "name": "Dr. Alex manuelle therapie", "city": "Архангельск", "street": "Советских Космонавтов проспект", "house": "140", "post": "163071", "x": 40.53576047, "y": 64.54914559, "cpi_id": 425684 }, "geometry": { "type": "Point", "coordinates": [ 4512420.214438516646624, 9490604.168992899358273 ] } },
{ "type": "Feature", "properties": { "id": 109983, "name": "Архангельская городская клиническая больница №7, ГБУЗ", "city": "Архангельск", "street": "Юнг Военно-Морского Флота", "house": "2", "post": "163018", "x": 40.48488351, "y": 64.61322468, "cpi_id": 461820 }, "geometry": { "type": "Point", "coordinates": [ 4506756.617158208042383, 9507222.826290048658848 ] } },
{ "type": "Feature", "properties": { "id": 110796, "name": "Центр амбулаторного гемодиализа Архангельск, ООО", "city": "Архангельск", "street": "Суфтина", "house": "18", "post": "163046", "x": 40.54757199, "y": 64.54315306, "cpi_id": 525993 }, "geometry": { "type": "Point", "coordinates": [ 4513735.066830411553383, 9489052.027804329991341 ] } },
{ "type": "Feature", "properties": { "id": 110924, "name": "Новодвинская центральная городская больница, ГБУЗ", "city": "Новодвинск (Новодвинск городской округ)", "street": "3-й Пятилетки", "house": "9г", "post": "164900", "x": 40.81400335, "y": 64.41319378, "cpi_id": 537869 }, "geometry": { "type": "Point", "coordinates": [ 4543394.07015697285533, 9455474.526113986968994 ] } },
{ "type": "Feature", "properties": { "id": 111056, "name": "ЗДОРОВАЯ СЕМЬЯ, медицинский центр", "city": "Архангельск", "street": "Воскресенская", "house": "116 к3", "post": "163051", "x": 40.56855531, "y": 64.5475803, "cpi_id": 554412 }, "geometry": { "type": "Point", "coordinates": [ 4516070.919327966868877, 9490198.706143200397491 ] } },
{ "type": "Feature", "properties": { "id": 111615, "name": "Женская консультация, Новодвинская центральная городская больница", "city": "Новодвинск (Новодвинск городской округ)", "street": "3-й Пятилетки", "house": "9е", "post": "164900", "x": 40.81022963, "y": 64.41081531, "cpi_id": 591460 }, "geometry": { "type": "Point", "coordinates": [ 4542973.981568172574043, 9454861.48596977442503 ] } },
{ "type": "Feature", "properties": { "id": 112253, "name": "Никс Трейдинг, стоматологическая клиника", "city": "Архангельск", "street": "Садовая", "house": "23", "post": "163000", "x": 40.52519965, "y": 64.55101331, "cpi_id": 639157 }, "geometry": { "type": "Point", "coordinates": [ 4511244.589333757758141, 9491088.001858212053776 ] } },
{ "type": "Feature", "properties": { "id": 113561, "name": "Томэс, стоматология", "city": "Архангельск", "street": "Тимме", "house": "25", "post": "163071", "x": 40.55533431, "y": 64.5531102, "cpi_id": 738430 }, "geometry": { "type": "Point", "coordinates": [ 4514599.164340179413557, 9491631.240705333650112 ] } },
{ "type": "Feature", "properties": { "id": 113605, "name": "Элит-дент, центр косметологии и стоматологии", "city": "Северодвинск (Северодвинск городской округ)", "street": "Лебедева", "house": "10", "post": "164502", "x": 39.79979727, "y": 64.53913977000001, "cpi_id": 753188 }, "geometry": { "type": "Point", "coordinates": [ 4430493.165771931409836, 9488012.72550342977047 ] } },
{ "type": "Feature", "properties": { "id": 115820, "name": "Первый ПОДОЛОГический Центр", "city": "Архангельск", "street": "Урицкого", "house": "68 к1", "post": "163060", "x": 40.57184279, "y": 64.53972163, "cpi_id": 914111 }, "geometry": { "type": "Point", "coordinates": [ 4516436.879927556961775, 9488163.397496417164803 ] } },
{ "type": "Feature", "properties": { "id": 115856, "name": "Архангельская городская клиническая поликлиника №2, ГБУЗ", "city": "Архангельск", "street": "Тимме", "house": "1", "post": "163060", "x": 40.56833369, "y": 64.54130845, "cpi_id": 928583 }, "geometry": { "type": "Point", "coordinates": [ 4516046.24870241433382, 9488574.319085337221622 ] } },
{ "type": "Feature", "properties": { "id": 115918, "name": "ЛАБОРАТОРИЯ ЗДОРОВЬЯ, клинико-диагностический центр", "city": "Архангельск", "street": "Советских Космонавтов проспект", "house": "115", "post": "163000", "x": 40.53248396, "y": 64.54532494, "cpi_id": 930952 }, "geometry": { "type": "Point", "coordinates": [ 4512055.475013732910156, 9489614.532835938036442 ] } },
{ "type": "Feature", "properties": { "id": 116275, "name": "Северодвинская городская детская клиническая больница, ГБУЗ", "city": "Северодвинск (Северодвинск городской округ)", "street": "Гагарина", "house": "9", "post": "164501", "x": 39.81352798, "y": 64.56176532000001, "cpi_id": 956440 }, "geometry": { "type": "Point", "coordinates": [ 4432021.661417357623577, 9493873.95479329675436 ] } },
{ "type": "Feature", "properties": { "id": 116337, "name": "Стоматологический кабинет", "city": "Новодвинск (Новодвинск городской округ)", "street": "Ворошилова", "house": "30", "post": "164900", "x": 40.80860284, "y": 64.4220149, "cpi_id": 958440 }, "geometry": { "type": "Point", "coordinates": [ 4542792.888133745640516, 9457748.595022849738598 ] } },
{ "type": "Feature", "properties": { "id": 116380, "name": "Здоровье, многопрофильный медицинский центр", "city": "Северодвинск (Северодвинск городской округ)", "street": "Морской проспект", "house": "53", "post": "164523", "x": 39.78055282, "y": 64.54074919, "cpi_id": 960024 }, "geometry": { "type": "Point", "coordinates": [ 4428350.883397325873375, 9488429.490852646529675 ] } },
{ "type": "Feature", "properties": { "id": 117787, "name": "Фельдшерско-акушерский пункт, Приморская центральная районная больница", "city": "Лайский Док (Приморский район)", "street": "Центральная", "house": "7Б", "post": "163522", "x": 40.25025421, "y": 64.53563339, "cpi_id": 1070147 }, "geometry": { "type": "Point", "coordinates": [ 4480637.802957020699978, 9487104.820371299982071 ] } },
{ "type": "Feature", "properties": { "id": 118298, "name": "ЛДЦ МИБС-Архангельск, центр диагностики", "city": "Архангельск", "street": "Тимме", "house": "5", "post": "163060", "x": 40.56601594, "y": 64.54323867, "cpi_id": 1099568 }, "geometry": { "type": "Point", "coordinates": [ 4515788.237952623516321, 9489074.19947774708271 ] } },
{ "type": "Feature", "properties": { "id": 118480, "name": "Архангельская городская клиническая больница №4, ГБУЗ", "city": "Архангельск", "street": "Клепача", "house": "11", "post": "163039", "x": 40.62026939, "y": 64.43106887, "cpi_id": 1118820 }, "geometry": { "type": "Point", "coordinates": [ 4521827.70438040420413, 9460083.453045606613159 ] } },
{ "type": "Feature", "properties": { "id": 119049, "name": "Кабинет психолога Марии Климовой", "city": "Архангельск", "street": "Троицкий проспект", "house": "21", "post": "", "x": 40.52702502, "y": 64.53291705, "cpi_id": 1160339 }, "geometry": { "type": "Point", "coordinates": [ 4511447.788592662662268, 9486401.56008142977953 ] } },
{ "type": "Feature", "properties": { "id": 119233, "name": "Северодвинский центр томографии", "city": "Северодвинск (Северодвинск городской округ)", "street": "Индустриальная", "house": "34а", "post": "164520", "x": 39.83335626, "y": 64.56295702, "cpi_id": 1179092 }, "geometry": { "type": "Point", "coordinates": [ 4434228.93545026704669, 9494182.803796753287315 ] } },
{ "type": "Feature", "properties": { "id": 119951, "name": "Улыбка, ООО, стоматологическая клиника", "city": "Архангельск", "street": "Выучейского", "house": "63", "post": "163046", "x": 40.54938302, "y": 64.54385055, "cpi_id": 1239747 }, "geometry": { "type": "Point", "coordinates": [ 4513936.669767823070288, 9489232.669013828039169 ] } },
{ "type": "Feature", "properties": { "id": 120013, "name": "ЕвроСтом, стоматологическая клиника", "city": "Архангельск", "street": "Розы Люксембург", "house": "12", "post": "", "x": 40.54529909, "y": 64.53141471000001, "cpi_id": 1241927 }, "geometry": { "type": "Point", "coordinates": [ 4513482.048759792000055, 9486012.634395860135555 ] } },
{ "type": "Feature", "properties": { "id": 120297, "name": "Кабинет психологической консультации", "city": "Архангельск", "street": "Ломоносова проспект", "house": "268", "post": "163001", "x": 40.53435437, "y": 64.55945515000001, "cpi_id": 1264897 }, "geometry": { "type": "Point", "coordinates": [ 4512263.688102509826422, 9493275.274030968546867 ] } },
{ "type": "Feature", "properties": { "id": 120744, "name": "Стоматологический кабинет", "city": "Архангельск", "street": "Урицкого", "house": "54 к2", "post": "163060", "x": 40.56883028, "y": 64.53769798, "cpi_id": 1293663 }, "geometry": { "type": "Point", "coordinates": [ 4516101.528848350048065, 9487639.389450415968895 ] } },
{ "type": "Feature", "properties": { "id": 120802, "name": "Зубной лекарь, стоматологическая клиника, ООО Архком", "city": "Архангельск", "street": "Московский проспект", "house": "45", "post": "163065", "x": 40.61536588, "y": 64.53259467, "cpi_id": 1296472 }, "geometry": { "type": "Point", "coordinates": [ 4521281.848144110292196, 9486318.100562788546085 ] } },
{ "type": "Feature", "properties": { "id": 121416, "name": "Медико-санитарная часть №2, Центральная медико-санитарная часть №58 Федерального медико-биологического агентства России", "city": "Северодвинск (Северодвинск городской округ)", "street": "Машиностроителей проезд", "house": "16", "post": "164509", "x": 39.8188756, "y": 64.59132641, "cpi_id": 1345759 }, "geometry": { "type": "Point", "coordinates": [ 4432616.955752719193697, 9501539.196916460990906 ] } },
{ "type": "Feature", "properties": { "id": 121898, "name": "Современная стоматология, ООО", "city": "Архангельск", "street": "Кировская", "house": "19", "post": "163059", "x": 40.58494785, "y": 64.59400408, "cpi_id": 1388744 }, "geometry": { "type": "Point", "coordinates": [ 4517895.728533577173948, 9502233.932554721832275 ] } },
{ "type": "Feature", "properties": { "id": 122176, "name": "Архангельская городская клиническая больница №7, ГБУЗ", "city": "Архангельск", "street": "Ярославская", "house": "42", "post": "163013", "x": 40.51898172, "y": 64.58488533000001, "cpi_id": 1398141 }, "geometry": { "type": "Point", "coordinates": [ 4510552.41253237426281, 9499868.304571352899075 ] } },
{ "type": "Feature", "properties": { "id": 122352, "name": "Самсон, медицинский центр", "city": "Северодвинск (Северодвинск городской округ)", "street": "Комсомольская", "house": "20", "post": "164521", "x": 39.84229778, "y": 64.55846198, "cpi_id": 1424831 }, "geometry": { "type": "Point", "coordinates": [ 4435224.300903584808111, 9493017.909533433616161 ] } },
{ "type": "Feature", "properties": { "id": 122952, "name": "Здоровый малыш, детский медицинский центр, ООО ОЧАГ", "city": "Архангельск", "street": "Новгородский проспект", "house": "89", "post": "163046", "x": 40.53560904, "y": 64.53714663, "cpi_id": 1468854 }, "geometry": { "type": "Point", "coordinates": [ 4512403.357328027486801, 9487496.628497719764709 ] } },
{ "type": "Feature", "properties": { "id": 123241, "name": "Зубной клуб, стоматологическая клиника", "city": "Архангельск", "street": "Гайдара", "house": "44/1", "post": "163071", "x": 40.54312629, "y": 64.55069924, "cpi_id": 1491866 }, "geometry": { "type": "Point", "coordinates": [ 4513240.173770185559988, 9491006.639706887304783 ] } },
{ "type": "Feature", "properties": { "id": 123953, "name": "Центр паллиативной медицинской помощи, Городская клиническая больница №6", "city": "Архангельск", "street": "Ильича", "house": "60", "post": "163059", "x": 40.58188869, "y": 64.60264605, "cpi_id": 1547142 }, "geometry": { "type": "Point", "coordinates": [ 4517555.184400115162134, 9504476.603791944682598 ] } },
{ "type": "Feature", "properties": { "id": 125305, "name": "Психолог Валентина Морозова", "city": "Архангельск", "street": "Новгородский проспект", "house": "74", "post": "163069", "x": 40.53888476, "y": 64.53666711, "cpi_id": 1642017 }, "geometry": { "type": "Point", "coordinates": [ 4512768.00881040096283, 9487372.468819186091423 ] } },
{ "type": "Feature", "properties": { "id": 125358, "name": "Invitro, медицинская компания", "city": "Новодвинск (Новодвинск городской округ)", "street": "3-й Пятилетки", "house": "2", "post": "164900", "x": 40.81852953, "y": 64.41381507, "cpi_id": 1643987 }, "geometry": { "type": "Point", "coordinates": [ 4543897.922209806740284, 9455634.669623650610447 ] } },
{ "type": "Feature", "properties": { "id": 125614, "name": "Селена, стоматологический центр", "city": "Архангельск", "street": "Поморская", "house": "34 к1", "post": "163046", "x": 40.53164003, "y": 64.53763553, "cpi_id": 1665768 }, "geometry": { "type": "Point", "coordinates": [ 4511961.529155872762203, 9487623.219138652086258 ] } },
{ "type": "Feature", "properties": { "id": 125745, "name": "Hestia psychology, психологическая студия", "city": "Северодвинск (Северодвинск городской округ)", "street": "Карла Маркса", "house": "30", "post": "164500", "x": 39.79013414, "y": 64.55834537, "cpi_id": 1670314 }, "geometry": { "type": "Point", "coordinates": [ 4429417.471060864627361, 9492987.692487895488739 ] } },
{ "type": "Feature", "properties": { "id": 126371, "name": "Северодвинская стоматологическая поликлиника", "city": "Северодвинск (Северодвинск городской округ)", "street": "Дзержинского", "house": "12", "post": "164509", "x": 39.80757616, "y": 64.59864481, "cpi_id": 1719152 }, "geometry": { "type": "Point", "coordinates": [ 4431359.107845664024353, 9503438.156407296657562 ] } },
{ "type": "Feature", "properties": { "id": 126444, "name": "City Style, оптика", "city": "Архангельск", "street": "Кировская", "house": "19", "post": "163059", "x": 40.58494785, "y": 64.59400408, "cpi_id": 1721626 }, "geometry": { "type": "Point", "coordinates": [ 4517895.728533577173948, 9502233.932554721832275 ] } },
{ "type": "Feature", "properties": { "id": 126639, "name": "Александрия, стоматологическая клиника", "city": "Новодвинск (Новодвинск городской округ)", "street": "3-й Пятилетки", "house": "4", "post": "164900", "x": 40.81732673, "y": 64.41382709, "cpi_id": 1741621 }, "geometry": { "type": "Point", "coordinates": [ 4543764.027126278728247, 9455637.767930723726749 ] } },
{ "type": "Feature", "properties": { "id": 127352, "name": "Happy kids, детская клиника", "city": "Северодвинск (Северодвинск городской округ)", "street": "Карла Маркса", "house": "6", "post": "164504", "x": 39.80992048, "y": 64.56144317, "cpi_id": 1799000 }, "geometry": { "type": "Point", "coordinates": [ 4431620.076354324817657, 9493790.466547042131424 ] } },
{ "type": "Feature", "properties": { "id": 127671, "name": "Стоматологический центр", "city": "Северодвинск (Северодвинск городской округ)", "street": "Ломоносова", "house": "104", "post": "164514", "x": 39.77586647, "y": 64.5504027, "cpi_id": 1818287 }, "geometry": { "type": "Point", "coordinates": [ 4427829.201301656663418, 9490929.819691620767117 ] } },
{ "type": "Feature", "properties": { "id": 128043, "name": "Медклиника гармония, ООО", "city": "Архангельск", "street": "Тимме", "house": "30", "post": "163051", "x": 40.55571789, "y": 64.55457265, "cpi_id": 1854654 }, "geometry": { "type": "Point", "coordinates": [ 4514641.864270459860563, 9492010.140653692185879 ] } },
{ "type": "Feature", "properties": { "id": 128794, "name": "Новодвинская центральная городская больница, ГБУЗ", "city": "Турдеевск", "street": "Левобережная", "house": "1", "post": "163048", "x": 40.7801391, "y": 64.45780878, "cpi_id": 1906793 }, "geometry": { "type": "Point", "coordinates": [ 4539624.319090869277716, 9466983.705637514591217 ] } },
{ "type": "Feature", "properties": { "id": 129211, "name": "Архангельская областная клиническая больница, ГБУЗ", "city": "Архангельск", "street": "Сибиряковцев проезд", "house": "15", "post": "163045", "x": 40.54791629, "y": 64.56467785, "cpi_id": 1933095 }, "geometry": { "type": "Point", "coordinates": [ 4513773.39413109049201, 9494628.809530392289162 ] } },
{ "type": "Feature", "properties": { "id": 130046, "name": "Гемотест, лаборатория", "city": "Архангельск", "street": "Карла Маркса", "house": "12 к1", "post": "163000", "x": 40.51913409, "y": 64.54459313, "cpi_id": 2001843 }, "geometry": { "type": "Point", "coordinates": [ 4510569.374283187091351, 9489424.993048012256622 ] } },
{ "type": "Feature", "properties": { "id": 130452, "name": "Белая роза, диагностический центр женского здоровья", "city": "Северодвинск (Северодвинск городской округ)", "street": "Ломоносова", "house": "54", "post": "164504", "x": 39.81944555, "y": 64.55710221, "cpi_id": 2031415 }, "geometry": { "type": "Point", "coordinates": [ 4432680.402296498417854, 9492665.561578519642353 ] } },
{ "type": "Feature", "properties": { "id": 130586, "name": "РЖД-Медицина, многопрофильный медицинский центр", "city": "Архангельск", "street": "Тимме", "house": "5", "post": "163060", "x": 40.56601594, "y": 64.54323867, "cpi_id": 2048876 }, "geometry": { "type": "Point", "coordinates": [ 4515788.237952623516321, 9489074.19947774708271 ] } },
{ "type": "Feature", "properties": { "id": 130763, "name": "Жемчужина, стоматология", "city": "Новодвинск (Новодвинск городской округ)", "street": "Ломоносова", "house": "2", "post": "164902", "x": 40.80675201, "y": 64.41502924, "cpi_id": 2055404 }, "geometry": { "type": "Point", "coordinates": [ 4542586.854680594056845, 9455947.644160032272339 ] } },
{ "type": "Feature", "properties": { "id": 131463, "name": "АМА-Меридиан, лечебно-оздоровительный центр", "city": "Архангельск", "street": "Советская", "house": "5", "post": "163020", "x": 40.5230458, "y": 64.5703328, "cpi_id": 2105506 }, "geometry": { "type": "Point", "coordinates": [ 4511004.823848512023687, 9496094.661191493272781 ] } },
{ "type": "Feature", "properties": { "id": 131642, "name": "Пульс, многопрофильная клиника", "city": "Архангельск", "street": "Северной Двины набережная", "house": "87", "post": "163000", "x": 40.50981901, "y": 64.54034881, "cpi_id": 2125296 }, "geometry": { "type": "Point", "coordinates": [ 4509532.424320884048939, 9488325.808651424944401 ] } },
{ "type": "Feature", "properties": { "id": 131739, "name": "Архангельская клиническая психиатрическая больница, ГБУЗ", "city": "Талаги (Приморский район)", "street": "Талаги посёлок", "house": "5/3", "post": "163530", "x": 40.64392344, "y": 64.62423357, "cpi_id": 2129210 }, "geometry": { "type": "Point", "coordinates": [ 4524460.861181601881981, 9510081.879461295902729 ] } },
{ "type": "Feature", "properties": { "id": 131798, "name": "Архангельская областная клиническая больница, ГБУЗ", "city": "Архангельск", "street": "Самойло", "house": "17", "post": "163045", "x": 40.54517727, "y": 64.56174819, "cpi_id": 2144473 }, "geometry": { "type": "Point", "coordinates": [ 4513468.487819422036409, 9493869.515365518629551 ] } },
{ "type": "Feature", "properties": { "id": 132355, "name": "Ваш врач, медицинский центр", "city": "Северодвинск (Северодвинск городской округ)", "street": "Комсомольская", "house": "34а", "post": "164507", "x": 39.83238081, "y": 64.5573304, "cpi_id": 2184535 }, "geometry": { "type": "Point", "coordinates": [ 4434120.348852973431349, 9492724.689674414694309 ] } },
{ "type": "Feature", "properties": { "id": 132485, "name": "Архангельская городская клиническая поликлиника №2, ГБУЗ", "city": "Архангельск", "street": "Северодвинская", "house": "16", "post": "163002", "x": 40.55211663, "y": 64.53208901000001, "cpi_id": 2188921 }, "geometry": { "type": "Point", "coordinates": [ 4514240.973841056227684, 9486187.194489449262619 ] } },
{ "type": "Feature", "properties": { "id": 132673, "name": "АВА КЛИНИК, многопрофильный медицинский центр", "city": "Архангельск", "street": "Суфтина", "house": "18", "post": "163046", "x": 40.54757199, "y": 64.54315306, "cpi_id": 2205273 }, "geometry": { "type": "Point", "coordinates": [ 4513735.066830411553383, 9489052.027804329991341 ] } },
{ "type": "Feature", "properties": { "id": 132828, "name": "Гемотест, лаборатория", "city": "Архангельск", "street": "Троицкий проспект", "house": "166", "post": "163001", "x": 40.5249928, "y": 64.55895611, "cpi_id": 2224009 }, "geometry": { "type": "Point", "coordinates": [ 4511221.562897089868784, 9493145.95443507283926 ] } },
{ "type": "Feature", "properties": { "id": 132980, "name": "Энтони, стоматологический центр", "city": "Архангельск", "street": "Прокопия Галушина", "house": "24 к1", "post": "163065", "x": 40.62361719, "y": 64.53173191, "cpi_id": 2229670 }, "geometry": { "type": "Point", "coordinates": [ 4522200.379771687090397, 9486094.749329000711441 ] } },
{ "type": "Feature", "properties": { "id": 134219, "name": "Новодвинский медицинский центр, ООО", "city": "Новодвинск (Новодвинск городской округ)", "street": "Декабристов", "house": "3", "post": "164900", "x": 40.82359613, "y": 64.42389849, "cpi_id": 2326417 }, "geometry": { "type": "Point", "coordinates": [ 4544461.933541864156723, 9458234.27591311186552 ] } },
{ "type": "Feature", "properties": { "id": 134710, "name": "Медицинский мир, салон-магазин, ООО Юнивер", "city": "Архангельск", "street": "Гагарина", "house": "12", "post": "163072", "x": 40.54172076, "y": 64.56205649, "cpi_id": 2369478 }, "geometry": { "type": "Point", "coordinates": [ 4513083.710886295884848, 9493949.415126040577888 ] } },
{ "type": "Feature", "properties": { "id": 134975, "name": "Доверие, центр платных медицинских услуг, ГБУЗ Первая ГКБ им. Е.Е. Волосевич", "city": "Архангельск", "street": "Суворова", "house": "5", "post": "163001", "x": 40.52484613, "y": 64.56068906, "cpi_id": 2379036 }, "geometry": { "type": "Point", "coordinates": [ 4511205.235667377710342, 9493595.035604186356068 ] } },
{ "type": "Feature", "properties": { "id": 135031, "name": "ДЕМЕТРА", "city": "Архангельск", "street": "Ломоносова проспект", "house": "13", "post": "163002", "x": 40.56353963, "y": 64.52837663, "cpi_id": 2380856 }, "geometry": { "type": "Point", "coordinates": [ 4515512.576384380459785, 9485226.201857432723045 ] } },
{ "type": "Feature", "properties": { "id": 135050, "name": "Архангельская областная клиническая больница, ГБУЗ", "city": "Архангельск", "street": "Сибиряковцев проезд", "house": "2 к3", "post": "163045", "x": 40.54952753, "y": 64.56351567, "cpi_id": 2394355 }, "geometry": { "type": "Point", "coordinates": [ 4513952.756547436118126, 9494327.591945506632328 ] } },
{ "type": "Feature", "properties": { "id": 135097, "name": "Медицина-Сервис, стоматологическая клиника", "city": "Архангельск", "street": "Троицкий проспект", "house": "64", "post": "163069", "x": 40.51641782, "y": 64.53760947000001, "cpi_id": 2395795 }, "geometry": { "type": "Point", "coordinates": [ 4510267.000489931553602, 9487616.471378207206726 ] } },
{ "type": "Feature", "properties": { "id": 135432, "name": "Пульс, многопрофильная клиника", "city": "Архангельск", "street": "Советская", "house": "5", "post": "163020", "x": 40.5230458, "y": 64.5703328, "cpi_id": 2415728 }, "geometry": { "type": "Point", "coordinates": [ 4511004.823848512023687, 9496094.661191493272781 ] } },
{ "type": "Feature", "properties": { "id": 135740, "name": "РЖД-Медицина, клиническая поликлиника", "city": "Архангельск", "street": "Тимме", "house": "5", "post": "163060", "x": 40.56601594, "y": 64.54323867, "cpi_id": 2441729 }, "geometry": { "type": "Point", "coordinates": [ 4515788.237952623516321, 9489074.19947774708271 ] } },
{ "type": "Feature", "properties": { "id": 135883, "name": "Архангельская клиническая психиатрическая больница, ГБУЗ", "city": "Талаги (Приморский район)", "street": "Талаги посёлок", "house": "5", "post": "163530", "x": 40.64343211, "y": 64.62601719, "cpi_id": 2460697 }, "geometry": { "type": "Point", "coordinates": [ 4524406.166576188057661, 9510545.201792046427727 ] } },
{ "type": "Feature", "properties": { "id": 137318, "name": "РИМ, медицинский салон", "city": "Архангельск", "street": "Воскресенская", "house": "102", "post": "163046", "x": 40.54997636, "y": 64.54521333, "cpi_id": 2560269 }, "geometry": { "type": "Point", "coordinates": [ 4514002.720074489712715, 9489585.625365070998669 ] } },
{ "type": "Feature", "properties": { "id": 137619, "name": "Шаг, ортопедический салон", "city": "Архангельск", "street": "Гагарина", "house": "11", "post": "163045", "x": 40.53968019, "y": 64.56396946, "cpi_id": 2579398 }, "geometry": { "type": "Point", "coordinates": [ 4512856.555672973394394, 9494445.205181986093521 ] } },
{ "type": "Feature", "properties": { "id": 138449, "name": "Дэма, медицинский центр", "city": "Северодвинск (Северодвинск городской округ)", "street": "Морской проспект", "house": "53", "post": "164523", "x": 39.78055282, "y": 64.54074919, "cpi_id": 2647371 }, "geometry": { "type": "Point", "coordinates": [ 4428350.883397325873375, 9488429.490852646529675 ] } },
{ "type": "Feature", "properties": { "id": 138472, "name": "Мой зубной, стоматология", "city": "Архангельск", "street": "Логинова", "house": "14 к1", "post": "163000", "x": 40.52652446, "y": 64.54826651, "cpi_id": 2648297 }, "geometry": { "type": "Point", "coordinates": [ 4511392.066508360207081, 9490376.454788774251938 ] } },
{ "type": "Feature", "properties": { "id": 139134, "name": "ОртоМакс, ООО, стоматология", "city": "Архангельск", "street": "Новгородский проспект", "house": "74", "post": "163069", "x": 40.53888476, "y": 64.53666711, "cpi_id": 2699114 }, "geometry": { "type": "Point", "coordinates": [ 4512768.00881040096283, 9487372.468819186091423 ] } },
{ "type": "Feature", "properties": { "id": 139511, "name": "Медицинский центр на Яграх", "city": "Северодвинск (Северодвинск городской округ)", "street": "Мира", "house": "42а", "post": "164524", "x": 39.81607325, "y": 64.60096047, "cpi_id": 2727136 }, "geometry": { "type": "Point", "coordinates": [ 4432304.999577689915895, 9504039.124251089990139 ] } },
{ "type": "Feature", "properties": { "id": 139789, "name": "Стоматологический кабинет", "city": "Северодвинск (Северодвинск городской округ)", "street": "Приморский бульвар", "house": "12", "post": "164524", "x": 39.79778439, "y": 64.59896958, "cpi_id": 2749161 }, "geometry": { "type": "Point", "coordinates": [ 4430269.092995297163725, 9503522.438722297549248 ] } },
{ "type": "Feature", "properties": { "id": 139825, "name": "Шаг, ортопедический салон", "city": "Архангельск", "street": "Троицкий проспект", "house": "137", "post": "163001", "x": 40.52394729, "y": 64.55934343, "cpi_id": 2750806 }, "geometry": { "type": "Point", "coordinates": [ 4511105.177256267517805, 9493246.32306931167841 ] } },
{ "type": "Feature", "properties": { "id": 140618, "name": "Семейный центр здоровья, Архангельский центр лечебной физкультуры и спортивной медицины", "city": "Архангельск", "street": "Холмогорская", "house": "16 к2", "post": "163015", "x": 40.65151638, "y": 64.51599494, "cpi_id": 2811639 }, "geometry": { "type": "Point", "coordinates": [ 4525306.103396024554968, 9482022.002439267933369 ] } },
{ "type": "Feature", "properties": { "id": 141070, "name": "Invitro, медицинская компания", "city": "Северодвинск (Северодвинск городской округ)", "street": "Ломоносова", "house": "85 к1", "post": "164515", "x": 39.78192704, "y": 64.55012867000001, "cpi_id": 2849448 }, "geometry": { "type": "Point", "coordinates": [ 4428503.860867965966463, 9490858.831735409796238 ] } },
{ "type": "Feature", "properties": { "id": 141175, "name": "Двина-стом, ООО, стоматологический кабинет", "city": "Архангельск", "street": "Северной Двины набережная", "house": "73", "post": "163069", "x": 40.51970548, "y": 64.53305105, "cpi_id": 2853817 }, "geometry": { "type": "Point", "coordinates": [ 4510632.981127023696899, 9486436.251033157110214 ] } },
{ "type": "Feature", "properties": { "id": 141656, "name": "Архангельская городская детская клиническая больница, ГБУЗ", "city": "Архангельск", "street": "Попова", "house": "9/1", "post": "163000", "x": 40.51977923, "y": 64.54733661, "cpi_id": 2896027 }, "geometry": { "type": "Point", "coordinates": [ 4510641.190939474850893, 9490135.584316171705723 ] } },
{ "type": "Feature", "properties": { "id": 141849, "name": "Гемотест, медицинская лаборатория", "city": "Архангельск", "street": "Прокопия Галушина", "house": "24", "post": "163065", "x": 40.62196163, "y": 64.53259394, "cpi_id": 2902863 }, "geometry": { "type": "Point", "coordinates": [ 4522016.083675503730774, 9486317.911577470600605 ] } },
{ "type": "Feature", "properties": { "id": 141900, "name": "Неврологический кабинет Гаевской И.И.", "city": "Архангельск", "street": "Советская", "house": "5", "post": "163020", "x": 40.5230458, "y": 64.5703328, "cpi_id": 2917659 }, "geometry": { "type": "Point", "coordinates": [ 4511004.823848512023687, 9496094.661191493272781 ] } },
{ "type": "Feature", "properties": { "id": 142271, "name": "Invitro, медицинская компания", "city": "Архангельск", "street": "Троицкий проспект", "house": "164", "post": "163001", "x": 40.52465885, "y": 64.55812207, "cpi_id": 2943541 }, "geometry": { "type": "Point", "coordinates": [ 4511184.387753136456013, 9492929.829318448901176 ] } },
{ "type": "Feature", "properties": { "id": 142287, "name": "Люкс Денталь, стоматология", "city": "Северодвинск (Северодвинск городской округ)", "street": "Морской проспект", "house": "38", "post": "164515", "x": 39.77652203, "y": 64.54653905000001, "cpi_id": 2943908 }, "geometry": { "type": "Point", "coordinates": [ 4427902.177907042205334, 9489929.000199995934963 ] } },
{ "type": "Feature", "properties": { "id": 142760, "name": "Family Stom, стоматологическая клиника", "city": "Архангельск", "street": "Новгородский проспект", "house": "174", "post": "163000", "x": 40.53241362, "y": 64.55095323, "cpi_id": 2974157 }, "geometry": { "type": "Point", "coordinates": [ 4512047.644800756126642, 9491072.43761833012104 ] } },
{ "type": "Feature", "properties": { "id": 142821, "name": "Шарм, центр красоты и здоровья", "city": "Архангельск", "street": "Северной Двины набережная", "house": "38", "post": "163069", "x": 40.53570269, "y": 64.53187414, "cpi_id": 2976283 }, "geometry": { "type": "Point", "coordinates": [ 4512413.782398339360952, 9486131.5693329423666 ] } },
{ "type": "Feature", "properties": { "id": 143280, "name": "Архангельская городская клиническая больница №7, ГБУЗ", "city": "Архангельск", "street": "Приморская", "house": "16", "post": "163019", "x": 40.46949313, "y": 64.58741053, "cpi_id": 3017402 }, "geometry": { "type": "Point", "coordinates": [ 4505043.367893490940332, 9500523.324205420911312 ] } },
{ "type": "Feature", "properties": { "id": 143839, "name": "Первая городская клиническая больница им. Е.Е. Волосевич, ГБУЗ", "city": "Архангельск", "street": "Гайдара", "house": "3", "post": "163001", "x": 40.51940077, "y": 64.55364945, "cpi_id": 3066671 }, "geometry": { "type": "Point", "coordinates": [ 4510599.060964982956648, 9491770.950328014791012 ] } },
{ "type": "Feature", "properties": { "id": 144165, "name": "Псифизис, центр психологической и нейропсихологической помощи", "city": "Архангельск", "street": "Троицкий проспект", "house": "106", "post": "163000", "x": 40.51835433, "y": 64.54522791, "cpi_id": 3090639 }, "geometry": { "type": "Point", "coordinates": [ 4510482.571797043085098, 9489589.401641167700291 ] } },
{ "type": "Feature", "properties": { "id": 144730, "name": "Анеста, специализированная клиника лечения боли", "city": "Архангельск", "street": "Северодвинская", "house": "82", "post": "163060", "x": 40.56333116, "y": 64.54156937, "cpi_id": 3124138 }, "geometry": { "type": "Point", "coordinates": [ 4515489.369610134512186, 9488641.889000177383423 ] } },
{ "type": "Feature", "properties": { "id": 145104, "name": "Здравушка, медицинский центр", "city": "Архангельск", "street": "Вологодская", "house": "6", "post": "163001", "x": 40.52057151, "y": 64.55528391, "cpi_id": 3149623 }, "geometry": { "type": "Point", "coordinates": [ 4510729.387145634740591, 9492194.42532767355442 ] } },
{ "type": "Feature", "properties": { "id": 145849, "name": "НеоДент, стоматологический центр", "city": "Архангельск", "street": "Карла Маркса", "house": "4", "post": "163000", "x": 40.51407891, "y": 64.54494949, "cpi_id": 3219806 }, "geometry": { "type": "Point", "coordinates": [ 4510006.634219717234373, 9489517.290138669312 ] } },
{ "type": "Feature", "properties": { "id": 146425, "name": "Кабинет психолога", "city": "Архангельск", "street": "Советских Космонавтов проспект", "house": "126", "post": "163071", "x": 40.53638113, "y": 64.54886546, "cpi_id": 20474 }, "geometry": { "type": "Point", "coordinates": [ 4512489.305993672460318, 9490531.604174494743347 ] } },
{ "type": "Feature", "properties": { "id": 146596, "name": "Александрия, стоматологическая клиника", "city": "Новодвинск (Новодвинск городской округ)", "street": "Советов", "house": "19", "post": "164900", "x": 40.82413519, "y": 64.41116422, "cpi_id": 35956 }, "geometry": { "type": "Point", "coordinates": [ 4544521.941426571458578, 9454951.412656143307686 ] } },
{ "type": "Feature", "properties": { "id": 147485, "name": "Dolce stom, стоматологическая клиника", "city": "Архангельск", "street": "Вельская", "house": "1", "post": "163002", "x": 40.58438313, "y": 64.52809906, "cpi_id": 106294 }, "geometry": { "type": "Point", "coordinates": [ 4517832.864190727472305, 9485154.354894690215588 ] } },
{ "type": "Feature", "properties": { "id": 147693, "name": "Гемотест, лаборатория", "city": "Северодвинск (Северодвинск городской округ)", "street": "Железнодорожная", "house": "22", "post": "164520", "x": 39.85341376, "y": 64.56510127, "cpi_id": 113859 }, "geometry": { "type": "Point", "coordinates": [ 4436461.726136852055788, 9494738.556093357503414 ] } },
{ "type": "Feature", "properties": { "id": 147985, "name": "Кабинет медицинского психолога Рюминой Елены", "city": "Архангельск", "street": "Северной Двины набережная", "house": "55", "post": "163069", "x": 40.52667582, "y": 64.5308654, "cpi_id": 136640 }, "geometry": { "type": "Point", "coordinates": [ 4511408.915826484560966, 9485870.434402719140053 ] } },
{ "type": "Feature", "properties": { "id": 148190, "name": "Фельдшерско-акушерский пункт, Приморская центральная районная больница", "city": "Луговой (Приморский район)", "street": "Луговой посёлок", "house": "5", "post": "163032", "x": 40.4333635, "y": 64.5102367, "cpi_id": 155583 }, "geometry": { "type": "Point", "coordinates": [ 4501021.435879338532686, 9480532.349436193704605 ] } },
{ "type": "Feature", "properties": { "id": 149353, "name": "Элит дента, центр семейной стоматологии", "city": "Северодвинск (Северодвинск городской округ)", "street": "Морской проспект", "house": "53", "post": "164523", "x": 39.78055282, "y": 64.54074919, "cpi_id": 245270 }, "geometry": { "type": "Point", "coordinates": [ 4428350.883397325873375, 9488429.490852646529675 ] } },
{ "type": "Feature", "properties": { "id": 150041, "name": "Архангельская городская клиническая больница №6, ГБУЗ", "city": "Архангельск", "street": "Карская", "house": "15", "post": "163029", "x": 40.60225926, "y": 64.71051354, "cpi_id": 295361 }, "geometry": { "type": "Point", "coordinates": [ 4519822.825879689306021, 9532529.334666356444359 ] } },
{ "type": "Feature", "properties": { "id": 150791, "name": "Северодвинская городская клиническая больница №2", "city": "Северодвинск (Северодвинск городской округ)", "street": "Дзержинского", "house": "12", "post": "164509", "x": 39.80757616, "y": 64.59864481, "cpi_id": 345653 }, "geometry": { "type": "Point", "coordinates": [ 4431359.107845664024353, 9503438.156407296657562 ] } },
{ "type": "Feature", "properties": { "id": 151288, "name": "Центр паллиативной медицинской помощи, Городская клиническая больница №6", "city": "Архангельск", "street": "23 Гвардейской Дивизии", "house": "10", "post": "163060", "x": 40.57269262, "y": 64.54561736, "cpi_id": 377017 }, "geometry": { "type": "Point", "coordinates": [ 4516531.482570417225361, 9489690.271436847746372 ] } },
{ "type": "Feature", "properties": { "id": 151445, "name": "Северный медицинский клинический центр им. Н.А. Семашко, ФГБУЗ", "city": "Архангельск", "street": "Гайдара", "house": "1", "post": "163001", "x": 40.51788098, "y": 64.55453248000001, "cpi_id": 396012 }, "geometry": { "type": "Point", "coordinates": [ 4510429.878716066479683, 9491999.732907816767693 ] } },
{ "type": "Feature", "properties": { "id": 152748, "name": "Чародеи, стоматологический центр", "city": "Архангельск", "street": "Суворова", "house": "16/2", "post": "163001", "x": 40.52836375, "y": 64.55800716, "cpi_id": 489056 }, "geometry": { "type": "Point", "coordinates": [ 4511596.8153345733881, 9492900.053162820637226 ] } },
{ "type": "Feature", "properties": { "id": 153068, "name": "Кабинет психолога", "city": "Архангельск", "street": "Ломоносова проспект", "house": "209", "post": "163000", "x": 40.52312322, "y": 64.54732517, "cpi_id": 510772 }, "geometry": { "type": "Point", "coordinates": [ 4511013.442203491926193, 9490132.621082879602909 ] } },
{ "type": "Feature", "properties": { "id": 153904, "name": "Квадрат, центр психологии", "city": "Архангельск", "street": "Новгородский проспект", "house": "74", "post": "163069", "x": 40.53888476, "y": 64.53666711, "cpi_id": 578877 }, "geometry": { "type": "Point", "coordinates": [ 4512768.00881040096283, 9487372.468819186091423 ] } },
{ "type": "Feature", "properties": { "id": 153930, "name": "Аурум плюс, медицинский центр", "city": "Северодвинск (Северодвинск городской округ)", "street": "Карла Маркса", "house": "7", "post": "164504", "x": 39.80920398, "y": 64.56021275000001, "cpi_id": 579874 }, "geometry": { "type": "Point", "coordinates": [ 4431540.315939169377089, 9493471.60054673999548 ] } },
{ "type": "Feature", "properties": { "id": 154069, "name": "Центр гигиены и эпидемиологии в Архангельской области, ФБУЗ", "city": "Архангельск", "street": "Гайдара", "house": "24", "post": "163000", "x": 40.52829203, "y": 64.5518948, "cpi_id": 593123 }, "geometry": { "type": "Point", "coordinates": [ 4511588.831500697880983, 9491316.363354608416557 ] } },
{ "type": "Feature", "properties": { "id": 155602, "name": "Доктор Волос, центр диагностики и лечения волос", "city": "Северодвинск (Северодвинск городской округ)", "street": "Ломоносова", "house": "100", "post": "164512", "x": 39.78576327, "y": 64.55238208, "cpi_id": 697809 }, "geometry": { "type": "Point", "coordinates": [ 4428930.908038139343262, 9491442.602770984172821 ] } },
{ "type": "Feature", "properties": { "id": 155620, "name": "Центр гигиены и эпидемиологии в Архангельской области, ФБУЗ", "city": "Северодвинск (Северодвинск городской округ)", "street": "Морской проспект", "house": "67", "post": "164523", "x": 39.78250151, "y": 64.53811705, "cpi_id": 698612 }, "geometry": { "type": "Point", "coordinates": [ 4428567.810575842857361, 9487747.901097200810909 ] } },
{ "type": "Feature", "properties": { "id": 156176, "name": "Жемчужина, стоматологический кабинет", "city": "Архангельск", "street": "Садовая", "house": "18", "post": "163000", "x": 40.53189193, "y": 64.54966054, "cpi_id": 743663 }, "geometry": { "type": "Point", "coordinates": [ 4511989.570535596460104, 9490737.563481196761131 ] } },
{ "type": "Feature", "properties": { "id": 156197, "name": "Северодвинский госпиталь для пациентов с COVID-19, ГБУЗ Северодвинская горбольница №2 СМП", "city": "Северодвинск (Северодвинск городской округ)", "street": "Морской проспект", "house": "49", "post": "164523", "x": 39.78482939, "y": 64.54142582, "cpi_id": 744173 }, "geometry": { "type": "Point", "coordinates": [ 4428826.948992073535919, 9488604.714072450995445 ] } },
{ "type": "Feature", "properties": { "id": 156685, "name": "Эдем, стоматологический центр", "city": "Северодвинск (Северодвинск городской округ)", "street": "Ломоносова", "house": "116", "post": "164522", "x": 39.76498309, "y": 64.5485239, "cpi_id": 774690 }, "geometry": { "type": "Point", "coordinates": [ 4426617.668981939554214, 9490443.127549923956394 ] } },
{ "type": "Feature", "properties": { "id": 157006, "name": "Ландыш, стоматология", "city": "Новодвинск (Новодвинск городской округ)", "street": "3-й Пятилетки", "house": "32", "post": "164902", "x": 40.79940596, "y": 64.41737589, "cpi_id": 806086 }, "geometry": { "type": "Point", "coordinates": [ 4541769.096135258674622, 9456552.57540000975132 ] } },
{ "type": "Feature", "properties": { "id": 157167, "name": "Архангельская городская детская клиническая больница, ГБУЗ", "city": "Архангельск", "street": "Троицкий проспект", "house": "49/1", "post": "163004", "x": 40.51159261, "y": 64.54018039, "cpi_id": 812364 }, "geometry": { "type": "Point", "coordinates": [ 4509729.860569752752781, 9488282.195148549973965 ] } },
{ "type": "Feature", "properties": { "id": 158050, "name": "Архангельская городская клиническая больница №4, ГБУЗ", "city": "Архангельск", "street": "Дачная", "house": "30", "post": "163057", "x": 40.66533297, "y": 64.51460125, "cpi_id": 875609 }, "geometry": { "type": "Point", "coordinates": [ 4526844.159159328788519, 9481661.426919311285019 ] } },
{ "type": "Feature", "properties": { "id": 158063, "name": "Первая городская клиническая больница им. Е.Е. Волосевич, ГБУЗ", "city": "Архангельск", "street": "Суворова", "house": "1/4", "post": "163001", "x": 40.52698326, "y": 64.56218746, "cpi_id": 875898 }, "geometry": { "type": "Point", "coordinates": [ 4511443.139890730381012, 9493983.357896015048027 ] } },
{ "type": "Feature", "properties": { "id": 159709, "name": "Кабинет психолога", "city": "Архангельск", "street": "Новгородский проспект", "house": "32", "post": "163002", "x": 40.55284461, "y": 64.53344983, "cpi_id": 1013659 }, "geometry": { "type": "Point", "coordinates": [ 4514322.012203957885504, 9486539.491277784109116 ] } },
{ "type": "Feature", "properties": { "id": 160021, "name": "Биолам, лечебно-диагностический центр", "city": "Архангельск", "street": "Ломоносова проспект", "house": "253", "post": "163001", "x": 40.52706584, "y": 64.55398772, "cpi_id": 1034298 }, "geometry": { "type": "Point", "coordinates": [ 4511452.332654278725386, 9491858.591189660131931 ] } },
{ "type": "Feature", "properties": { "id": 160575, "name": "Северная стоматология, стоматологическая клиника", "city": "Архангельск", "street": "Воронина В.И.", "house": "32 к2", "post": "163062", "x": 40.68077293, "y": 64.51442605, "cpi_id": 1078920 }, "geometry": { "type": "Point", "coordinates": [ 4528562.927644398063421, 9481616.100471824407578 ] } },
{ "type": "Feature", "properties": { "id": 160996, "name": "Архангельская городская клиническая больница №4, ГБУЗ", "city": "Архангельск", "street": "Трудовая", "house": "6", "post": "163011", "x": 40.63822955, "y": 64.50113486, "cpi_id": 1106531 }, "geometry": { "type": "Point", "coordinates": [ 4523827.020246177911758, 9478178.349594071507454 ] } },
{ "type": "Feature", "properties": { "id": 161136, "name": "Шаг, ортопедический салон", "city": "Архангельск", "street": "Тимме", "house": "4 к3", "post": "163060", "x": 40.57012534, "y": 64.54205696, "cpi_id": 1124763 }, "geometry": { "type": "Point", "coordinates": [ 4516245.694268096238375, 9488768.160910435020924 ] } },
{ "type": "Feature", "properties": { "id": 161316, "name": "Архангельская городская детская клиническая больница, ГБУЗ", "city": "Архангельск", "street": "Приорова проезд", "house": "6", "post": "163071", "x": 40.54895201, "y": 64.54871912, "cpi_id": 1130891 }, "geometry": { "type": "Point", "coordinates": [ 4513888.689954094588757, 9490493.696586988866329 ] } },
{ "type": "Feature", "properties": { "id": 162383, "name": "Зубной лекарь, стоматологическая клиника, ООО Архком", "city": "Архангельск", "street": "Воскресенская", "house": "99", "post": "163071", "x": 40.55942024, "y": 64.54852297, "cpi_id": 1209477 }, "geometry": { "type": "Point", "coordinates": [ 4515054.007987208664417, 9490442.886647179722786 ] } },
{ "type": "Feature", "properties": { "id": 162454, "name": "Hestia psychology, психологическая студия", "city": "Архангельск", "street": "Гайдара", "house": "4 к1", "post": "163000", "x": 40.51748121, "y": 64.55265609, "cpi_id": 1228068 }, "geometry": { "type": "Point", "coordinates": [ 4510385.376523237675428, 9491513.591412872076035 ] } },
{ "type": "Feature", "properties": { "id": 162645, "name": "Глория-Дент, стоматологический центр", "city": "Архангельск", "street": "Карла Либкнехта", "house": "19", "post": "163000", "x": 40.52460865, "y": 64.53878933, "cpi_id": 1235141 }, "geometry": { "type": "Point", "coordinates": [ 4511178.799514699727297, 9487921.981009915471077 ] } },
{ "type": "Feature", "properties": { "id": 162701, "name": "Семейная Клиника", "city": "Архангельск", "street": "Прокопия Галушина", "house": "16", "post": "163009", "x": 40.61863011, "y": 64.52981007, "cpi_id": 1237005 }, "geometry": { "type": "Point", "coordinates": [ 4521645.220565535128117, 9485597.248939104378223 ] } },
{ "type": "Feature", "properties": { "id": 162865, "name": "Семейная стоматология", "city": "Северодвинск (Северодвинск городской округ)", "street": "Комсомольская", "house": "20", "post": "164521", "x": 39.84229778, "y": 64.55846198, "cpi_id": 1256464 }, "geometry": { "type": "Point", "coordinates": [ 4435224.300903584808111, 9493017.909533433616161 ] } },
{ "type": "Feature", "properties": { "id": 163043, "name": "Черные глаза, магазин очков", "city": "Северодвинск (Северодвинск городской округ)", "street": "Ломоносова", "house": "81", "post": "164500", "x": 39.7856851, "y": 64.55044162, "cpi_id": 1276157 }, "geometry": { "type": "Point", "coordinates": [ 4428922.206193543970585, 9490939.902044333517551 ] } },
{ "type": "Feature", "properties": { "id": 163626, "name": "Центр гигиены и эпидемиологии в Архангельской области, ФБУЗ", "city": "Архангельск", "street": "Новгородский проспект", "house": "26", "post": "163002", "x": 40.55798513, "y": 64.53251858, "cpi_id": 1310061 }, "geometry": { "type": "Point", "coordinates": [ 4514894.252272769808769, 9486298.402106270194054 ] } },
{ "type": "Feature", "properties": { "id": 163925, "name": "Приморская центральная районная больница, ГБУЗ", "city": "Большое Анисимово (Приморский район)", "street": "60 лет Октября", "house": "11", "post": "163515", "x": 40.50596875, "y": 64.48028195000001, "cpi_id": 1333960 }, "geometry": { "type": "Point", "coordinates": [ 4509103.815338265150785, 9472788.136604391038418 ] } },
{ "type": "Feature", "properties": { "id": 164251, "name": "Casada, магазин массажеров и массажных кресел", "city": "Архангельск", "street": "Ленинградский проспект", "house": "38", "post": "163009", "x": 40.59950082, "y": 64.52396376, "cpi_id": 1359022 }, "geometry": { "type": "Point", "coordinates": [ 4519515.757743507623672, 9484084.04927933961153 ] } },
{ "type": "Feature", "properties": { "id": 164618, "name": "Поликлиника авиаторов, ООО", "city": "Архангельск", "street": "Самойло", "house": "12 к1", "post": "163072", "x": 40.54374372, "y": 64.55907768, "cpi_id": 1398862 }, "geometry": { "type": "Point", "coordinates": [ 4513308.905763391405344, 9493177.457469716668129 ] } },
{ "type": "Feature", "properties": { "id": 164948, "name": "ЛЕНС, офтальмологическая клиника", "city": "Архангельск", "street": "Воскресенская", "house": "14", "post": "163000", "x": 40.53085395, "y": 64.54106529000001, "cpi_id": 1416783 }, "geometry": { "type": "Point", "coordinates": [ 4511874.023130550980568, 9488511.349022939801216 ] } },
{ "type": "Feature", "properties": { "id": 165740, "name": "Северный медицинский клинический центр им. Н.А. Семашко, ФГБУЗ", "city": "Архангельск", "street": "Гайдара", "house": "5 к1", "post": "163001", "x": 40.51977333, "y": 64.55408666, "cpi_id": 1479786 }, "geometry": { "type": "Point", "coordinates": [ 4510640.53415447846055, 9491884.225317366421223 ] } },
{ "type": "Feature", "properties": { "id": 166262, "name": "Кардиоэксперт, медицинский центр", "city": "Архангельск", "street": "Северной Двины набережная", "house": "95/2", "post": "163000", "x": 40.51360953, "y": 64.54393552000001, "cpi_id": 1522946 }, "geometry": { "type": "Point", "coordinates": [ 4509954.383077122271061, 9489254.675499565899372 ] } },
{ "type": "Feature", "properties": { "id": 166530, "name": "Северодвинская городская клиническая больница №2", "city": "Северодвинск (Северодвинск городской округ)", "street": "Морской проспект", "house": "49", "post": "164523", "x": 39.78482939, "y": 64.54142582, "cpi_id": 1540406 }, "geometry": { "type": "Point", "coordinates": [ 4428826.948992073535919, 9488604.714072450995445 ] } },
{ "type": "Feature", "properties": { "id": 166749, "name": "Гелиос+, стоматологический кабинет", "city": "Архангельск", "street": "Ломоносова проспект", "house": "261", "post": "163001", "x": 40.52766765, "y": 64.55568922, "cpi_id": 1560466 }, "geometry": { "type": "Point", "coordinates": [ 4511519.325837038457394, 9492299.441708274185658 ] } },
{ "type": "Feature", "properties": { "id": 166904, "name": "Стоматологический кабинет", "city": "Архангельск", "street": "Володарского", "house": "10", "post": "163069", "x": 40.53015583, "y": 64.53417793, "cpi_id": 1575477 }, "geometry": { "type": "Point", "coordinates": [ 4511796.308767639100552, 9486727.993144109845161 ] } },
{ "type": "Feature", "properties": { "id": 167076, "name": "Архангельский клинический онкологический диспансер, ГБУЗ", "city": "Архангельск", "street": "Обводный канал проспект", "house": "145 к1", "post": "163045", "x": 40.55681953, "y": 64.56341923, "cpi_id": 1581939 }, "geometry": { "type": "Point", "coordinates": [ 4514764.498274303972721, 9494302.596890494227409 ] } },
{ "type": "Feature", "properties": { "id": 167176, "name": "Архангельский госпиталь для ветеранов войн, ГБУЗ", "city": "Архангельск", "street": "Воронина В.И.", "house": "24", "post": "163057", "x": 40.68435973, "y": 64.50787248, "cpi_id": 1585569 }, "geometry": { "type": "Point", "coordinates": [ 4528962.208393972367048, 9479920.818167045712471 ] } },
{ "type": "Feature", "properties": { "id": 167264, "name": "Женева, ООО, медицинский центр", "city": "Архангельск", "street": "Карельская", "house": "37", "post": "163001", "x": 40.53551982, "y": 64.55861702, "cpi_id": 1601682 }, "geometry": { "type": "Point", "coordinates": [ 4512393.4254030585289, 9493058.085110828280449 ] } },
{ "type": "Feature", "properties": { "id": 167528, "name": "Центр биомеханики", "city": "Архангельск", "street": "Воскресенская", "house": "59", "post": "163046", "x": 40.5338286, "y": 64.54309754000001, "cpi_id": 1623770 }, "geometry": { "type": "Point", "coordinates": [ 4512205.159653838723898, 9489037.649015374481678 ] } },
{ "type": "Feature", "properties": { "id": 167947, "name": "Лорцентр, медицинский центр", "city": "Северодвинск (Северодвинск городской округ)", "street": "Карла Маркса", "house": "6", "post": "164504", "x": 39.80992048, "y": 64.56144317, "cpi_id": 1652884 }, "geometry": { "type": "Point", "coordinates": [ 4431620.076354324817657, 9493790.466547042131424 ] } },
{ "type": "Feature", "properties": { "id": 168870, "name": "Первая городская клиническая больница им. Е.Е. Волосевич, ГБУЗ", "city": "Архангельск", "street": "Комсомольская", "house": "4", "post": "163001", "x": 40.52878571, "y": 64.56291616, "cpi_id": 1725393 }, "geometry": { "type": "Point", "coordinates": [ 4511643.787706919014454, 9494172.214020185172558 ] } },
{ "type": "Feature", "properties": { "id": 169168, "name": "Паритет-Дент, ООО, стоматологический центр", "city": "Архангельск", "street": "Никольский проспект", "house": "37 к1", "post": "163020", "x": 40.50412869, "y": 64.57928692, "cpi_id": 1749436 }, "geometry": { "type": "Point", "coordinates": [ 4508898.980796035379171, 9498416.331885010004044 ] } },
{ "type": "Feature", "properties": { "id": 169171, "name": "Университетский медицинский центр, СГМУ", "city": "Архангельск", "street": "Троицкий проспект", "house": "51", "post": "163000", "x": 40.51400075, "y": 64.54213724, "cpi_id": 1749487 }, "geometry": { "type": "Point", "coordinates": [ 4509997.933488309383392, 9488788.951358281075954 ] } },
{ "type": "Feature", "properties": { "id": 169362, "name": "Забота, медицинский центр", "city": "Архангельск", "street": "Гагарина", "house": "1", "post": "163045", "x": 40.53655473, "y": 64.56617382, "cpi_id": 1755738 }, "geometry": { "type": "Point", "coordinates": [ 4512508.631057273596525, 9495016.558802947402 ] } },
{ "type": "Feature", "properties": { "id": 169636, "name": "Архангельская областная клиническая стоматологическая поликлиника, ГАУЗ", "city": "Архангельск", "street": "Воскресенская", "house": "112", "post": "163060", "x": 40.56053014, "y": 64.54744961, "cpi_id": 1785373 }, "geometry": { "type": "Point", "coordinates": [ 4515177.561490029096603, 9490164.854082532227039 ] } },
{ "type": "Feature", "properties": { "id": 170201, "name": "Улыбнись, стоматологический кабинет", "city": "Архангельск", "street": "Карельская", "house": "37", "post": "163001", "x": 40.53551982, "y": 64.55861702, "cpi_id": 1825488 }, "geometry": { "type": "Point", "coordinates": [ 4512393.4254030585289, 9493058.085110828280449 ] } },
{ "type": "Feature", "properties": { "id": 171390, "name": "Архангельская городская детская клиническая больница, ГБУЗ", "city": "Архангельск", "street": "Кегостровская", "house": "85", "post": "163017", "x": 40.43171145, "y": 64.53860111, "cpi_id": 1913958 }, "geometry": { "type": "Point", "coordinates": [ 4500837.5305145829916, 9487873.242966458201408 ] } },
{ "type": "Feature", "properties": { "id": 171629, "name": "Академия здоровья, медицинский центр", "city": "Архангельск", "street": "Дзержинского проспект", "house": "7 к4", "post": "163051", "x": 40.5747327, "y": 64.5470751, "cpi_id": 1936048 }, "geometry": { "type": "Point", "coordinates": [ 4516758.583237197250128, 9490067.847289264202118 ] } },
{ "type": "Feature", "properties": { "id": 171726, "name": "Эстетика клиник, ООО, центр стоматологии", "city": "Северодвинск (Северодвинск городской округ)", "street": "Первомайская", "house": "60", "post": "164512", "x": 39.78621155, "y": 64.56315838, "cpi_id": 1939544 }, "geometry": { "type": "Point", "coordinates": [ 4428980.810339473187923, 9494234.990945257246494 ] } },
{ "type": "Feature", "properties": { "id": 171895, "name": "Мой Доктор, медицинский центр, ООО Здоровая семья", "city": "Архангельск", "street": "Чумбарова-Лучинского проспект", "house": "7 к1", "post": "", "x": 40.53398367, "y": 64.53250506000001, "cpi_id": 1945549 }, "geometry": { "type": "Point", "coordinates": [ 4512222.421967275440693, 9486294.902005158364773 ] } },
{ "type": "Feature", "properties": { "id": 172441, "name": "Северные медицинские технологии, ООО, центр микрохирургии глаза", "city": "Северодвинск (Северодвинск городской округ)", "street": "Морской проспект", "house": "53", "post": "164523", "x": 39.78055282, "y": 64.54074919, "cpi_id": 1989641 }, "geometry": { "type": "Point", "coordinates": [ 4428350.883397325873375, 9488429.490852646529675 ] } },
{ "type": "Feature", "properties": { "id": 172573, "name": "Стоматологический кабинет", "city": "Северодвинск (Северодвинск городской округ)", "street": "Комсомольская", "house": "8а", "post": "164521", "x": 39.85426185, "y": 64.56030903, "cpi_id": 1994424 }, "geometry": { "type": "Point", "coordinates": [ 4436556.135083802044392, 9493496.551197499036789 ] } },
{ "type": "Feature", "properties": { "id": 174320, "name": "Клинико-диагностический центр специализированной помощи, Архангельский клинический противотуберкулезный диспансер", "city": "Архангельск", "street": "Новгородский проспект", "house": "28", "post": "163002", "x": 40.5560476, "y": 64.53297257, "cpi_id": 2136252 }, "geometry": { "type": "Point", "coordinates": [ 4514678.567419778555632, 9486415.933505840599537 ] } },
{ "type": "Feature", "properties": { "id": 174575, "name": "Школа Маяк, семейный клуб", "city": "Архангельск", "street": "Ломоносова проспект", "house": "261", "post": "163001", "x": 40.52766765, "y": 64.55568922, "cpi_id": 2157501 }, "geometry": { "type": "Point", "coordinates": [ 4511519.325837038457394, 9492299.441708274185658 ] } },
{ "type": "Feature", "properties": { "id": 174625, "name": "Жемчуг, стоматологический кабинет", "city": "Северодвинск (Северодвинск городской округ)", "street": "Гагарина", "house": "13", "post": "164504", "x": 39.81551269, "y": 64.56010154000001, "cpi_id": 2159020 }, "geometry": { "type": "Point", "coordinates": [ 4432242.598323933780193, 9493442.780944406986237 ] } },
{ "type": "Feature", "properties": { "id": 175370, "name": "Центр лучевой диагностики, ООО", "city": "Архангельск", "street": "Попова", "house": "6", "post": "163000", "x": 40.5158944, "y": 64.54699543, "cpi_id": 2214523 }, "geometry": { "type": "Point", "coordinates": [ 4510208.733642052859068, 9490047.21107966452837 ] } },
{ "type": "Feature", "properties": { "id": 176022, "name": "Архангельская станция переливания крови", "city": "Архангельск", "street": "Ломоносова проспект", "house": "311", "post": "163045", "x": 40.54338511, "y": 64.56438032, "cpi_id": 2263260 }, "geometry": { "type": "Point", "coordinates": [ 4513268.985480792820454, 9494551.693515747785568 ] } },
{ "type": "Feature", "properties": { "id": 176063, "name": "Ясно-понятно, логопедический кабинет", "city": "Северодвинск (Северодвинск городской округ)", "street": "Карла Маркса", "house": "48", "post": "164514", "x": 39.77002595, "y": 64.55519843, "cpi_id": 2264961 }, "geometry": { "type": "Point", "coordinates": [ 4427179.037589285522699, 9492172.277541019022465 ] } },
{ "type": "Feature", "properties": { "id": 176331, "name": "Зубная Фея, стоматологическая клиника", "city": "Архангельск", "street": "Чумбарова-Лучинского проспект", "house": "41", "post": "", "x": 40.52339776, "y": 64.53661339, "cpi_id": 2287232 }, "geometry": { "type": "Point", "coordinates": [ 4511044.003856498748064, 9487358.559508308768272 ] } },
{ "type": "Feature", "properties": { "id": 176466, "name": "Эстетика, стоматологический центр", "city": "Северодвинск (Северодвинск городской округ)", "street": "Беломорский проспект", "house": "13", "post": "164520", "x": 39.84440301, "y": 64.56979193, "cpi_id": 2292127 }, "geometry": { "type": "Point", "coordinates": [ 4435458.654035188257694, 9495954.446052417159081 ] } },
{ "type": "Feature", "properties": { "id": 176896, "name": "Arkhangelsk_smileroom", "city": "Архангельск", "street": "Троицкий проспект", "house": "106", "post": "163000", "x": 40.51835433, "y": 64.54522791, "cpi_id": 2333605 }, "geometry": { "type": "Point", "coordinates": [ 4510482.571797043085098, 9489589.401641167700291 ] } },
{ "type": "Feature", "properties": { "id": 177208, "name": "Фельдшерско-акушерский пункт, Приморская центральная районная больница", "city": "Окулово (Приморский район)", "street": "Окулово деревня", "house": "2а", "post": "163038", "x": 40.63750407, "y": 64.46474043000001, "cpi_id": 2358575 }, "geometry": { "type": "Point", "coordinates": [ 4523746.260181989520788, 9468773.522594302892685 ] } },
{ "type": "Feature", "properties": { "id": 177328, "name": "Центральная медико-санитарная часть №58 Федерального медико-биологического агентства России", "city": "Северодвинск (Северодвинск городской округ)", "street": "Кирилкина", "house": "4", "post": "164502", "x": 39.78685412, "y": 64.5375882, "cpi_id": 2363329 }, "geometry": { "type": "Point", "coordinates": [ 4429052.340904671698809, 9487610.963905438780785 ] } },
{ "type": "Feature", "properties": { "id": 177371, "name": "Кабинет психолога", "city": "Архангельск", "street": "Красных Партизан", "house": "12 к1", "post": "163020", "x": 40.50660475, "y": 64.5822453, "cpi_id": 2364855 }, "geometry": { "type": "Point", "coordinates": [ 4509174.61453440785408, 9499183.563779309391975 ] } },
{ "type": "Feature", "properties": { "id": 177980, "name": "Северный медицинский клинический центр им. Н.А. Семашко, ФГБУЗ", "city": "Архангельск", "street": "Троицкий проспект", "house": "113", "post": "163001", "x": 40.5206643, "y": 64.55457157, "cpi_id": 2418889 }, "geometry": { "type": "Point", "coordinates": [ 4510739.716481190174818, 9492009.86083360016346 ] } },
{ "type": "Feature", "properties": { "id": 178262, "name": "Архангельская клиническая офтальмологическая больница", "city": "Архангельск", "street": "Обводный канал проспект", "house": "9", "post": "163002", "x": 40.55692168, "y": 64.53560131, "cpi_id": 2428645 }, "geometry": { "type": "Point", "coordinates": [ 4514775.869560290127993, 9487096.514452375471592 ] } },
{ "type": "Feature", "properties": { "id": 178273, "name": "Северодвинский родильный дом, ГБУЗ", "city": "Северодвинск (Северодвинск городской округ)", "street": "Ломоносова", "house": "54", "post": "164504", "x": 39.81944555, "y": 64.55710221, "cpi_id": 2429033 }, "geometry": { "type": "Point", "coordinates": [ 4432680.402296498417854, 9492665.561578519642353 ] } },
{ "type": "Feature", "properties": { "id": 178481, "name": "АС-клиника, ООО", "city": "Архангельск", "street": "Ломоносова проспект", "house": "83", "post": "", "x": 40.53722098, "y": 64.53391592, "cpi_id": 2450911 }, "geometry": { "type": "Point", "coordinates": [ 4512582.797668013721704, 9486660.159335851669312 ] } },
{ "type": "Feature", "properties": { "id": 178640, "name": "Дент-Мастер, ООО, стоматологическая клиника", "city": "Архангельск", "street": "Ломоносова проспект", "house": "181", "post": "163000", "x": 40.52157533, "y": 64.54503126, "cpi_id": 2456528 }, "geometry": { "type": "Point", "coordinates": [ 4510841.131876889616251, 9489538.468704491853714 ] } },
{ "type": "Feature", "properties": { "id": 178997, "name": "Беломорская Медицинская Компания, ООО, стоматологический центр", "city": "Северодвинск (Северодвинск городской округ)", "street": "Железнодорожная", "house": "34", "post": "164521", "x": 39.85642633, "y": 64.5613773, "cpi_id": 2495402 }, "geometry": { "type": "Point", "coordinates": [ 4436797.083895232528448, 9493773.395829580724239 ] } },
{ "type": "Feature", "properties": { "id": 179699, "name": "Двина-Стом Плюс, ООО, стоматологическая клиника", "city": "Архангельск", "street": "Поморская", "house": "60 к1", "post": "163046", "x": 40.53581688, "y": 64.54061623, "cpi_id": 2539774 }, "geometry": { "type": "Point", "coordinates": [ 4512426.49397099390626, 9488395.05942989140749 ] } },
{ "type": "Feature", "properties": { "id": 179898, "name": "Улыбка Севера, стоматология", "city": "Архангельск", "street": "Зеньковича", "house": "11", "post": "163035", "x": 40.60066026, "y": 64.47703684, "cpi_id": 2567176 }, "geometry": { "type": "Point", "coordinates": [ 4519644.826013907790184, 9471949.686328813433647 ] } },
{ "type": "Feature", "properties": { "id": 179989, "name": "Северодвинская городская больница №1, ГБУЗ", "city": "Северодвинск (Северодвинск городской округ)", "street": "Георгия Седова", "house": "20", "post": "164504", "x": 39.82300138, "y": 64.5548199, "cpi_id": 2570606 }, "geometry": { "type": "Point", "coordinates": [ 4433076.235481444746256, 9492074.201612927019596 ] } },
{ "type": "Feature", "properties": { "id": 180290, "name": "Фельдшерско-акушерский пункт, Приморская центральная районная больница", "city": "Одиночка (Приморский район)", "street": "Одиночка деревня", "house": "38", "post": "163527", "x": 40.4383656, "y": 64.58601394, "cpi_id": 2589609 }, "geometry": { "type": "Point", "coordinates": [ 4501578.267104238271713, 9500161.05078811198473 ] } },
{ "type": "Feature", "properties": { "id": 181129, "name": "Поликлиника, 1469 Военно-морской клинический госпиталь Министерства обороны РФ", "city": "Северодвинск (Северодвинск городской округ)", "street": "Торцева", "house": "44", "post": "164501", "x": 39.8102819, "y": 64.56426123, "cpi_id": 2660008 }, "geometry": { "type": "Point", "coordinates": [ 4431660.309444684535265, 9494520.827129237353802 ] } },
{ "type": "Feature", "properties": { "id": 181145, "name": "Рефлекс, стоматологический кабинет", "city": "Архангельск", "street": "Ломоносова проспект", "house": "58/1", "post": "", "x": 40.54898409, "y": 64.53263887, "cpi_id": 2660322 }, "geometry": { "type": "Point", "coordinates": [ 4513892.261083353310823, 9486329.543245077133179 ] } },
{ "type": "Feature", "properties": { "id": 182308, "name": "Первая городская клиническая больница им. Е.Е. Волосевич, ГБУЗ", "city": "Архангельск", "street": "Суворова", "house": "3", "post": "163001", "x": 40.52444921, "y": 64.56083847, "cpi_id": 2739071 }, "geometry": { "type": "Point", "coordinates": [ 4511161.050735089927912, 9493633.755437165498734 ] } },
{ "type": "Feature", "properties": { "id": 182328, "name": "Точка зрения, ООО, офтальмологический центр", "city": "Архангельск", "street": "Комсомольская", "house": "47", "post": "163072", "x": 40.54001571, "y": 64.55892171000001, "cpi_id": 2739776 }, "geometry": { "type": "Point", "coordinates": [ 4512893.905588515102863, 9493137.040218651294708 ] } },
{ "type": "Feature", "properties": { "id": 183349, "name": "Северный медицинский клинический центр им. Н.А. Семашко, ФГБУЗ", "city": "Архангельск", "street": "Вологодская", "house": "2", "post": "163001", "x": 40.51819492, "y": 64.55547274, "cpi_id": 2820376 }, "geometry": { "type": "Point", "coordinates": [ 4510464.826357014477253, 9492243.351247124373913 ] } },
{ "type": "Feature", "properties": { "id": 184220, "name": "Витаника, стоматология", "city": "Северодвинск (Северодвинск городской округ)", "street": "Труда проспект", "house": "40", "post": "164500", "x": 39.79992352, "y": 64.55563634000001, "cpi_id": 2885901 }, "geometry": { "type": "Point", "coordinates": [ 4430507.219857640564442, 9492285.740338690578938 ] } },
{ "type": "Feature", "properties": { "id": 184420, "name": "Шаг, ортопедический салон", "city": "Северодвинск (Северодвинск городской округ)", "street": "Ломоносова", "house": "56", "post": "164504", "x": 39.81588398, "y": 64.55633691, "cpi_id": 2905535 }, "geometry": { "type": "Point", "coordinates": [ 4432283.930137671530247, 9492467.262322761118412 ] } },
{ "type": "Feature", "properties": { "id": 184572, "name": "Архангельская городская клиническая поликлиника №1, ГБУЗ", "city": "Архангельск", "street": "Троицкий проспект", "house": "99", "post": "163000", "x": 40.52038002, "y": 64.55274569, "cpi_id": 2911147 }, "geometry": { "type": "Point", "coordinates": [ 4510708.070576351135969, 9491536.804524533450603 ] } },
{ "type": "Feature", "properties": { "id": 185773, "name": "Кабинет ортопеда-травматолога", "city": "Архангельск", "street": "Новгородский проспект", "house": "74", "post": "163069", "x": 40.53888476, "y": 64.53666711, "cpi_id": 3005829 }, "geometry": { "type": "Point", "coordinates": [ 4512768.00881040096283, 9487372.468819186091423 ] } },
{ "type": "Feature", "properties": { "id": 185918, "name": "Фельдшерско-акушерский пункт, Приморская центральная районная больница", "city": "Талаги (Приморский район)", "street": "Талаги посёлок", "house": "26", "post": "163530", "x": 40.66868422, "y": 64.62248058, "cpi_id": 3010932 }, "geometry": { "type": "Point", "coordinates": [ 4527217.218602854758501, 9509626.543366014957428 ] } },
{ "type": "Feature", "properties": { "id": 186023, "name": "Северодвинская городская детская клиническая больница, ГБУЗ", "city": "Северодвинск (Северодвинск городской округ)", "street": "Морской проспект", "house": "34", "post": "164515", "x": 39.77653173, "y": 64.547452, "cpi_id": 3030183 }, "geometry": { "type": "Point", "coordinates": [ 4427903.257706098258495, 9490165.473152346909046 ] } },
{ "type": "Feature", "properties": { "id": 187163, "name": "Центральная медико-санитарная часть №58 Федерального медико-биологического агентства России", "city": "Северодвинск (Северодвинск городской округ)", "street": "Архангельское шоссе", "house": "70", "post": "", "x": 39.80481217, "y": 64.57076089, "cpi_id": 3110451 }, "geometry": { "type": "Point", "coordinates": [ 4431051.421886309981346, 9496205.641216918826103 ] } },
{ "type": "Feature", "properties": { "id": 188239, "name": "Центр медтехники, магазин", "city": "Архангельск", "street": "Троицкий проспект", "house": "65", "post": "163000", "x": 40.51539717, "y": 64.5445159, "cpi_id": 3205555 }, "geometry": { "type": "Point", "coordinates": [ 4510153.382251642644405, 9489404.990669369697571 ] } },
{ "type": "Feature", "properties": { "id": 188745, "name": "Самсон, медицинский центр", "city": "Северодвинск (Северодвинск городской округ)", "street": "Советская", "house": "25", "post": "164520", "x": 39.8397212, "y": 64.56641062, "cpi_id": 3236581 }, "geometry": { "type": "Point", "coordinates": [ 4434937.47732999175787, 9495077.938340812921524 ] } },
{ "type": "Feature", "properties": { "id": 188869, "name": "Первая городская клиническая больница им. Е.Е. Волосевич, ГБУЗ", "city": "Архангельск", "street": "Красина", "house": "2", "post": "163044", "x": 40.34432792, "y": 64.5294128, "cpi_id": 3253954 }, "geometry": { "type": "Point", "coordinates": [ 4491110.040451258420944, 9485494.413332261145115 ] } },
{ "type": "Feature", "properties": { "id": 189046, "name": "Архангельская городская клиническая больница №4, ГБУЗ", "city": "Архангельск", "street": "Штурманская", "house": "2", "post": "163038", "x": 40.65268497, "y": 64.45897036, "cpi_id": 3260025 }, "geometry": { "type": "Point", "coordinates": [ 4525436.190239779651165, 9467283.604867570102215 ] } },
{ "type": "Feature", "properties": { "id": 190056, "name": "Северодвинская городская детская клиническая больница, ГБУЗ", "city": "Северодвинск (Северодвинск городской округ)", "street": "Ломоносова", "house": "49а к1", "post": "164504", "x": 39.81928463, "y": 64.55445894, "cpi_id": 652952 }, "geometry": { "type": "Point", "coordinates": [ 4432662.488764032721519, 9491980.679284825921059 ] } },
{ "type": "Feature", "properties": { "id": 191095, "name": "Центр поддержки молодой семьи, ГАУ", "city": "Архангельск", "street": "Ломоносова проспект", "house": "269", "post": "163001", "x": 40.52793793, "y": 64.55734516, "cpi_id": 1336693 }, "geometry": { "type": "Point", "coordinates": [ 4511549.413269009441137, 9492728.514270521700382 ] } },
{ "type": "Feature", "properties": { "id": 191760, "name": "Глобо-стом", "city": "Архангельск", "street": "Суворова", "house": "11 к2", "post": "163001", "x": 40.52929529, "y": 64.55937083000001, "cpi_id": 1759443 }, "geometry": { "type": "Point", "coordinates": [ 4511700.513893030583858, 9493253.42345529794693 ] } },
{ "type": "Feature", "properties": { "id": 192050, "name": "Вита Дент, стоматологическая клиника", "city": "Архангельск", "street": "Гагарина", "house": "8", "post": "163045", "x": 40.53801727, "y": 64.56380075, "cpi_id": 1970867 }, "geometry": { "type": "Point", "coordinates": [ 4512671.440265338867903, 9494401.478716179728508 ] } },
{ "type": "Feature", "properties": { "id": 192056, "name": "Фельдшерско-акушерский пункт, Приморская центральная районная больница", "city": "Ластола (Приморский район)", "street": "Северодвинская", "house": "31", "post": "163524", "x": 40.2948022, "y": 64.60030121, "cpi_id": 1971071 }, "geometry": { "type": "Point", "coordinates": [ 4485596.862519692629576, 9503868.025678068399429 ] } },
{ "type": "Feature", "properties": { "id": 192439, "name": "Надежда, кризисный центр", "city": "Архангельск", "street": "Суворова", "house": "9", "post": "163001", "x": 40.52728015, "y": 64.55981893000001, "cpi_id": 2220470 }, "geometry": { "type": "Point", "coordinates": [ 4511476.189534351229668, 9493369.544284299015999 ] } },
{ "type": "Feature", "properties": { "id": 192470, "name": "Архангельская городская клиническая больница №6, ГБУЗ", "city": "Архангельск", "street": "Победы", "house": "67", "post": "163026", "x": 40.50389707, "y": 64.67672775, "cpi_id": 2244704 }, "geometry": { "type": "Point", "coordinates": [ 4508873.196975573897362, 9523730.779280222952366 ] } },
{ "type": "Feature", "properties": { "id": 193155, "name": "Зубной, стоматологический кабинет, ООО ТехноДент", "city": "Архангельск", "street": "Советских Космонавтов проспект", "house": "57", "post": "163046", "x": 40.53881962, "y": 64.53840847, "cpi_id": 2667391 }, "geometry": { "type": "Point", "coordinates": [ 4512760.75745877623558, 9487823.360748015344143 ] } },
{ "type": "Feature", "properties": { "id": 193331, "name": "Здоровье, многопрофильный медицинский центр", "city": "Северодвинск (Северодвинск городской округ)", "street": "Победы проспект", "house": "14", "post": "164505", "x": 39.82025399, "y": 64.54047738, "cpi_id": 2784504 }, "geometry": { "type": "Point", "coordinates": [ 4432770.397425629198551, 9488359.102907374501228 ] } },
{ "type": "Feature", "properties": { "id": 193677, "name": "Северодвинская городская детская клиническая больница, ГБУЗ", "city": "Северодвинск (Северодвинск городской округ)", "street": "Ломоносова", "house": "49", "post": "164504", "x": 39.81652887, "y": 64.55486737, "cpi_id": 3038572 }, "geometry": { "type": "Point", "coordinates": [ 4432355.718964084982872, 9492086.500865399837494 ] } },
{ "type": "Feature", "properties": { "id": 193695, "name": "Медлайф, медицинский центр", "city": "Архангельск", "street": "Самойло", "house": "12 к1", "post": "163072", "x": 40.54374372, "y": 64.55907768, "cpi_id": 3039121 }, "geometry": { "type": "Point", "coordinates": [ 4513308.905763391405344, 9493177.457469716668129 ] } },
{ "type": "Feature", "properties": { "id": 195013, "name": "Надежда, центр психолого-медико-социального сопровождения для детей", "city": "Архангельск", "street": "Ильича", "house": "43", "post": "163059", "x": 40.57958965, "y": 64.60283105000001, "cpi_id": 1565335 }, "geometry": { "type": "Point", "coordinates": [ 4517299.256438005715609, 9504524.620793648064137 ] } },
{ "type": "Feature", "properties": { "id": 195382, "name": "Улыбка, стоматологическая дизайн-студия", "city": "Архангельск", "street": "Новгородский проспект", "house": "74", "post": "163069", "x": 40.53888476, "y": 64.53666711, "cpi_id": 2437041 }, "geometry": { "type": "Point", "coordinates": [ 4512768.00881040096283, 9487372.468819186091423 ] } },
{ "type": "Feature", "properties": { "id": 196130, "name": "Центр здоровья", "city": "", "street": "", "house": "", "post": "", "x": 44.4265169, "y": 64.0066189, "cpi_id": 7397 }, "geometry": { "type": "Point", "coordinates": [ 4945537.23902678117156, 9351445.169479466974735 ] } },
{ "type": "Feature", "properties": { "id": 196842, "name": "ФАП", "city": "", "street": "", "house": "", "post": "", "x": 44.5006511, "y": 65.6019358, "cpi_id": 13919 }, "geometry": { "type": "Point", "coordinates": [ 4953789.820421136915684, 9768740.378775723278522 ] } },
{ "type": "Feature", "properties": { "id": 196857, "name": "ФАП", "city": "", "street": "", "house": "", "post": "", "x": 43.4442906, "y": 66.0444915, "cpi_id": 14750 }, "geometry": { "type": "Point", "coordinates": [ 4836196.307467006146908, 9889033.378283470869064 ] } },
{ "type": "Feature", "properties": { "id": 196895, "name": "ФАП", "city": "", "street": "", "house": "", "post": "", "x": 44.3293418, "y": 64.2888751, "cpi_id": 15010 }, "geometry": { "type": "Point", "coordinates": [ 4934719.75637698918581, 9423502.903620198369026 ] } },
{ "type": "Feature", "properties": { "id": 197002, "name": "ФАП", "city": "", "street": "", "house": "", "post": "", "x": 45.1395547, "y": 65.3270221, "cpi_id": 15858 }, "geometry": { "type": "Point", "coordinates": [ 5024912.243839129805565, 9695042.543494798243046 ] } },
{ "type": "Feature", "properties": { "id": 198478, "name": "Санаторий-профилакторий \"Поморье\"", "city": "", "street": "", "house": "", "post": "", "x": 38.0433261, "y": 63.9331323, "cpi_id": 1376 }, "geometry": { "type": "Point", "coordinates": [ 4234963.689534462988377, 9332804.142667397856712 ] } },
{ "type": "Feature", "properties": { "id": 203687, "name": "Детская больница", "city": "", "street": "", "house": "", "post": "", "x": 38.0484344, "y": 63.9358057, "cpi_id": 70275 }, "geometry": { "type": "Point", "coordinates": [ 4235532.342889294028282, 9333481.435141712427139 ] } },
{ "type": "Feature", "properties": { "id": 203981, "name": "", "city": "", "street": "", "house": "", "post": "", "x": 45.7541627, "y": 64.8895667, "cpi_id": 72426 }, "geometry": { "type": "Point", "coordinates": [ 5093330.093436598777771, 9579342.83175390958786 ] } },
{ "type": "Feature", "properties": { "id": 203982, "name": "", "city": "", "street": "", "house": "", "post": "", "x": 45.7519708, "y": 64.8888618, "cpi_id": 72427 }, "geometry": { "type": "Point", "coordinates": [ 5093086.092244729399681, 9579157.924408435821533 ] } },
{ "type": "Feature", "properties": { "id": 203983, "name": "", "city": "", "street": "", "house": "", "post": "", "x": 45.7527761, "y": 64.8887716, "cpi_id": 72428 }, "geometry": { "type": "Point", "coordinates": [ 5093175.73783066868782, 9579134.263753540813923 ] } },
{ "type": "Feature", "properties": { "id": 203987, "name": "", "city": "", "street": "", "house": "", "post": "", "x": 45.7510032, "y": 64.8889088, "cpi_id": 72433 }, "geometry": { "type": "Point", "coordinates": [ 5092978.379505440592766, 9579170.253162555396557 ] } },
{ "type": "Feature", "properties": { "id": 205277, "name": "Медецинский пункт", "city": "", "street": "", "house": "", "post": "", "x": 45.0535295, "y": 65.7928503, "cpi_id": 20186 }, "geometry": { "type": "Point", "coordinates": [ 5015335.962379734963179, 9820380.058735355734825 ] } },
{ "type": "Feature", "properties": { "id": 205402, "name": "ФАП", "city": "", "street": "", "house": "", "post": "", "x": 44.6085021, "y": 65.5691894, "cpi_id": 14964 }, "geometry": { "type": "Point", "coordinates": [ 4965795.738822679966688, 9759921.084775097668171 ] } },
{ "type": "Feature", "properties": { "id": 205405, "name": "ФАП", "city": "", "street": "", "house": "", "post": "", "x": 44.4127786, "y": 65.6581551, "cpi_id": 14969 }, "geometry": { "type": "Point", "coordinates": [ 4944007.898466408252716, 9783907.368115425109863 ] } },
{ "type": "Feature", "properties": { "id": 205406, "name": "Мезенский дом-интернат для престарелых и инвалидов", "city": "", "street": "", "house": "", "post": "", "x": 44.4123012, "y": 65.658405, "cpi_id": 14971 }, "geometry": { "type": "Point", "coordinates": [ 4943954.754541501402855, 9783974.860189951956272 ] } },
{ "type": "Feature", "properties": { "id": 206411, "name": "", "city": "", "street": "", "house": "", "post": "", "x": 35.7089891, "y": 65.0217325, "cpi_id": 4653 }, "geometry": { "type": "Point", "coordinates": [ 3975106.483354564756155, 9614098.274670250713825 ] } },
{ "type": "Feature", "properties": { "id": 206851, "name": "ФАП", "city": "", "street": "", "house": "", "post": "", "x": 43.6667356, "y": 63.822549, "cpi_id": 15521 }, "geometry": { "type": "Point", "coordinates": [ 4860958.771596517413855, 9304844.857565075159073 ] } },
{ "type": "Feature", "properties": { "id": 209424, "name": "", "city": "", "street": "", "house": "", "post": "", "x": 37.4507819, "y": 63.7150883, "cpi_id": 12924 }, "geometry": { "type": "Point", "coordinates": [ 4169001.970917955040932, 9277780.04640893638134 ] } },
{ "type": "Feature", "properties": { "id": 211656, "name": "Санитарно-эпидемиологическая служба", "city": "", "street": "", "house": "", "post": "", "x": 38.1029446, "y": 63.9034171, "cpi_id": 15474 }, "geometry": { "type": "Point", "coordinates": [ 4241600.390596322715282, 9325280.292269565165043 ] } },
{ "type": "Feature", "properties": { "id": 211665, "name": "Родильное отделение", "city": "", "street": "", "house": "", "post": "", "x": 38.1182867, "y": 63.9045936, "cpi_id": 15483 }, "geometry": { "type": "Point", "coordinates": [ 4243308.26535601913929, 9325578.029051266610622 ] } },
{ "type": "Feature", "properties": { "id": 211666, "name": "Инфекционное отделение", "city": "", "street": "", "house": "", "post": "", "x": 38.1179686, "y": 63.903717, "cpi_id": 15484 }, "geometry": { "type": "Point", "coordinates": [ 4243272.854626003652811, 9325356.186758548021317 ] } },
{ "type": "Feature", "properties": { "id": 211667, "name": "Поликлиника", "city": "", "street": "", "house": "", "post": "", "x": 38.1172037, "y": 63.9040114, "cpi_id": 15485 }, "geometry": { "type": "Point", "coordinates": [ 4243187.706347499042749, 9325430.690173469483852 ] } }
]
}
