{
"type": "FeatureCollection",
"name": "objects_education_2",
"crs": { "type": "name", "properties": { "name": "urn:ogc:def:crs:EPSG::3857" } },
"features": [
{ "type": "Feature", "properties": { "id": 224, "name": "Северный (Арктический) федеральный университет им. М.В. Ломоносова, ФГАОУ ВО", "city": "Северодвинск (Северодвинск городской округ)", "street": "Карла Маркса", "house": "36а", "post": "164512", "x": 39.78059915, "y": 64.55791398 }, "geometry": { "type": "Point", "coordinates": [ 4428356.040829341858625, 9492875.907904878258705 ] } },
{ "type": "Feature", "properties": { "id": 275, "name": "Средняя школа №23 им. А.С. Пушкина", "city": "Архангельск", "street": "Федота Шубина", "house": "7 к1", "post": "163001", "x": 40.52576143, "y": 64.55726367 }, "geometry": { "type": "Point", "coordinates": [ 4511307.126397293061018, 9492707.398690924048424 ] } },
{ "type": "Feature", "properties": { "id": 1874, "name": "Архангельский областной институт открытого образования, ГАОУ", "city": "Архангельск", "street": "Ломоносова проспект", "house": "270", "post": "163001", "x": 40.53533598, "y": 64.55931417 }, "geometry": { "type": "Point", "coordinates": [ 4512372.96042787656188, 9493238.74069419503212 ] } },
{ "type": "Feature", "properties": { "id": 1912, "name": "Средняя школа №34 им. А.И. Клепача", "city": "Архангельск", "street": "Клепача", "house": "3", "post": "163039", "x": 40.61717154, "y": 64.43169736 }, "geometry": { "type": "Point", "coordinates": [ 4521482.853295855224133, 9460245.558072812855244 ] } },
{ "type": "Feature", "properties": { "id": 3241, "name": "Центр инновационного обучения, САФУ им. М.В. Ломоносова", "city": "Архангельск", "street": "Урицкого", "house": "68 к3", "post": "163060", "x": 40.57454813, "y": 64.53944863 }, "geometry": { "type": "Point", "coordinates": [ 4516738.036998774856329, 9488092.704053081572056 ] } },
{ "type": "Feature", "properties": { "id": 3588, "name": "Oк, студия английского языка", "city": "Архангельск", "street": "Гайдара", "house": "44/1", "post": "163071", "x": 40.54312629, "y": 64.55069924 }, "geometry": { "type": "Point", "coordinates": [ 4513240.173770185559988, 9491006.639706887304783 ] } },
{ "type": "Feature", "properties": { "id": 4057, "name": "Приморская средняя школа с дошкольным отделением", "city": "Рикасиха (Приморский район)", "street": "Рикасиха деревня", "house": "66", "post": "163523", "x": 40.16590383, "y": 64.53746316 }, "geometry": { "type": "Point", "coordinates": [ 4471247.961607206612825, 9487578.58719889074564 ] } },
{ "type": "Feature", "properties": { "id": 4437, "name": "Архангельское городское техническое учреждение", "city": "Архангельск", "street": "Урицкого", "house": "47", "post": "163060", "x": 40.56702931, "y": 64.53779532 }, "geometry": { "type": "Point", "coordinates": [ 4515901.045785017311573, 9487664.593978084623814 ] } },
{ "type": "Feature", "properties": { "id": 4935, "name": "Северный (Арктический) федеральный университет им. М.В. Ломоносова, ФГАОУ ВО", "city": "Архангельск", "street": "Северной Двины набережная", "house": "22", "post": "163069", "x": 40.54538666, "y": 64.52928518 }, "geometry": { "type": "Point", "coordinates": [ 4513491.797007597982883, 9485461.378484562039375 ] } },
{ "type": "Feature", "properties": { "id": 4947, "name": "Северодвинский технический колледж, филиал САФУ им. М.В. Ломоносова", "city": "Северодвинск (Северодвинск городской округ)", "street": "Железнодорожная", "house": "1 к1", "post": "164520", "x": 39.84657728, "y": 64.57597857 }, "geometry": { "type": "Point", "coordinates": [ 4435700.692664436995983, 9497558.436823599040508 ] } },
{ "type": "Feature", "properties": { "id": 5244, "name": "Prima №1, вокальная школа", "city": "Архангельск", "street": "Папанина", "house": "25", "post": "", "x": 40.67556373, "y": 64.5182328 }, "geometry": { "type": "Point", "coordinates": [ 4527983.042152959853411, 9482601.020145855844021 ] } },
{ "type": "Feature", "properties": { "id": 7610, "name": "Академия-центр, ООО, образовательный центр", "city": "Архангельск", "street": "Гайдара", "house": "4 к1", "post": "163000", "x": 40.51748121, "y": 64.55265609 }, "geometry": { "type": "Point", "coordinates": [ 4510385.376523237675428, 9491513.591412872076035 ] } },
{ "type": "Feature", "properties": { "id": 8074, "name": "Юниоркод, школа программирования", "city": "Архангельск", "street": "Новгородский проспект", "house": "32", "post": "163002", "x": 40.55284461, "y": 64.53344983 }, "geometry": { "type": "Point", "coordinates": [ 4514322.012203957885504, 9486539.491277784109116 ] } },
{ "type": "Feature", "properties": { "id": 8687, "name": "Средняя школа №5 с дошкольным отделением", "city": "Архангельск", "street": "Тимме", "house": "18 к2", "post": "163051", "x": 40.56053858, "y": 64.55138085 }, "geometry": { "type": "Point", "coordinates": [ 4515178.501026540994644, 9491183.216997742652893 ] } },
{ "type": "Feature", "properties": { "id": 8819, "name": "Fashion Kids Models, детское модельное агентство", "city": "Архангельск", "street": "Новгородский проспект", "house": "32", "post": "163002", "x": 40.55284461, "y": 64.53344983 }, "geometry": { "type": "Point", "coordinates": [ 4514322.012203957885504, 9486539.491277784109116 ] } },
{ "type": "Feature", "properties": { "id": 9025, "name": "Северный кванториум, МАОУ ДО", "city": "Северодвинск (Северодвинск городской округ)", "street": "Капитана Воронина", "house": "27а", "post": "164504", "x": 39.8134218, "y": 64.55708395000001 }, "geometry": { "type": "Point", "coordinates": [ 4432009.841513831168413, 9492660.830108486115932 ] } },
{ "type": "Feature", "properties": { "id": 9673, "name": "Инженер, ООО, центр обучения", "city": "Архангельск", "street": "Урицкого", "house": "17", "post": "163002", "x": 40.56095511, "y": 64.53220622000001 }, "geometry": { "type": "Point", "coordinates": [ 4515224.868934035301208, 9486217.537786640226841 ] } },
{ "type": "Feature", "properties": { "id": 9695, "name": "Академия, частная школа", "city": "Архангельск", "street": "Чумбарова-Лучинского проспект", "house": "11 к1", "post": "", "x": 40.53310634, "y": 64.53317954000001 }, "geometry": { "type": "Point", "coordinates": [ 4512124.75803842023015, 9486469.515673652291298 ] } },
{ "type": "Feature", "properties": { "id": 9873, "name": "Mary Kay, косметическая компания", "city": "Архангельск", "street": "Троицкий проспект", "house": "20", "post": "163069", "x": 40.5267068, "y": 64.5341725 }, "geometry": { "type": "Point", "coordinates": [ 4511412.364504311233759, 9486726.587322540581226 ] } },
{ "type": "Feature", "properties": { "id": 9946, "name": "Северный (Арктический) федеральный университет им. М.В. Ломоносова, ФГАОУ ВО", "city": "Северодвинск (Северодвинск городской округ)", "street": "Ленина проспект", "house": "42", "post": "164507", "x": 39.83108119, "y": 64.5559028 }, "geometry": { "type": "Point", "coordinates": [ 4433975.675816349685192, 9492354.781209357082844 ] } },
{ "type": "Feature", "properties": { "id": 10108, "name": "Приморская детская школа искусств", "city": "Уемский (Приморский район)", "street": "Заводская", "house": "10", "post": "163502", "x": 40.84247876, "y": 64.47829293 }, "geometry": { "type": "Point", "coordinates": [ 4546563.938298299908638, 9472274.21484038233757 ] } },
{ "type": "Feature", "properties": { "id": 11025, "name": "FAMILY LOFT, семейная студия", "city": "Архангельск", "street": "Новгородский проспект", "house": "32", "post": "163002", "x": 40.55284461, "y": 64.53344983 }, "geometry": { "type": "Point", "coordinates": [ 4514322.012203957885504, 9486539.491277784109116 ] } },
{ "type": "Feature", "properties": { "id": 11170, "name": "Детская школа искусств №48, МБУ ДО", "city": "Архангельск", "street": "Нахимова", "house": "6 к1", "post": "163035", "x": 40.60016339, "y": 64.47830018000001 }, "geometry": { "type": "Point", "coordinates": [ 4519589.514698516577482, 9472276.08802305907011 ] } },
{ "type": "Feature", "properties": { "id": 11914, "name": "KIBERone, международная кибершкола", "city": "Архангельск", "street": "Троицкий проспект", "house": "20", "post": "163069", "x": 40.5267068, "y": 64.5341725 }, "geometry": { "type": "Point", "coordinates": [ 4511412.364504311233759, 9486726.587322540581226 ] } },
{ "type": "Feature", "properties": { "id": 12842, "name": "Средняя общеобразовательная школа №1, МОУ, г. Новодвинск", "city": "Новодвинск (Новодвинск городской округ)", "street": "50-летия Октября", "house": "15", "post": "164900", "x": 40.82043431, "y": 64.41319733 }, "geometry": { "type": "Point", "coordinates": [ 4544109.961349479854107, 9455475.441150538623333 ] } },
{ "type": "Feature", "properties": { "id": 13632, "name": "Korel`ski, гончарная мастерская", "city": "Северодвинск (Северодвинск городской округ)", "street": "Профсоюзная", "house": "11а", "post": "164520", "x": 39.8377596, "y": 64.56360207 }, "geometry": { "type": "Point", "coordinates": [ 4434719.113016851246357, 9494349.984935954213142 ] } },
{ "type": "Feature", "properties": { "id": 14158, "name": "Арктический морской институт им. В.И. Воронина, ФГБОУ ВО Государственный университет морского и речного флота им. адмирала С.О. Макарова", "city": "Архангельск", "street": "Садовая", "house": "2", "post": "163000", "x": 40.51707215, "y": 64.55160614 }, "geometry": { "type": "Point", "coordinates": [ 4510339.840172335505486, 9491241.581398852169514 ] } },
{ "type": "Feature", "properties": { "id": 14551, "name": "Талажская средняя общеобразовательная школа с дошкольным отделением", "city": "Талаги (Приморский район)", "street": "Талаги посёлок", "house": "29", "post": "163530", "x": 40.67125259, "y": 64.62499319 }, "geometry": { "type": "Point", "coordinates": [ 4527503.128243420273066, 9510279.198552787303925 ] } },
{ "type": "Feature", "properties": { "id": 15228, "name": "Средняя общеобразовательная школа №28, г. Северодвинск", "city": "Северодвинск (Северодвинск городской округ)", "street": "Юбилейная", "house": "17", "post": "164505", "x": 39.81985704, "y": 64.54147174000001 }, "geometry": { "type": "Point", "coordinates": [ 4432726.20915375649929, 9488616.605884559452534 ] } },
{ "type": "Feature", "properties": { "id": 15254, "name": "Ксения, университетская гимназия с детским садом", "city": "Архангельск", "street": "Ломоносова проспект", "house": "11", "post": "163002", "x": 40.56071153, "y": 64.52847923 }, "geometry": { "type": "Point", "coordinates": [ 4515197.753732465207577, 9485252.759301371872425 ] } },
{ "type": "Feature", "properties": { "id": 15328, "name": "Северный (Арктический) федеральный университет им. М.В. Ломоносова, ФГАОУ ВО", "city": "Архангельск", "street": "Северной Двины набережная", "house": "14", "post": "163002", "x": 40.55226002, "y": 64.52768236 }, "geometry": { "type": "Point", "coordinates": [ 4514256.935942836105824, 9485046.496521636843681 ] } },
{ "type": "Feature", "properties": { "id": 15933, "name": "Архангельский торгово-экономический колледж, ГАПОУ", "city": "Архангельск", "street": "Дачная", "house": "57 к3", "post": "163015", "x": 40.66846356, "y": 64.52021024 }, "geometry": { "type": "Point", "coordinates": [ 4527192.654844015836716, 9483112.696994282305241 ] } },
{ "type": "Feature", "properties": { "id": 15992, "name": "Северный (Арктический) федеральный университет им. М.В. Ломоносова, ФГАОУ ВО", "city": "Архангельск", "street": "Новгородский проспект", "house": "34/2", "post": "163046", "x": 40.55108904, "y": 64.53527489 }, "geometry": { "type": "Point", "coordinates": [ 4514126.58304550498724, 9487012.00072904676199 ] } },
{ "type": "Feature", "properties": { "id": 15997, "name": "Архангельский финансово-промышленный колледж", "city": "Архангельск", "street": "Ломоносова проспект", "house": "293", "post": "163045", "x": 40.53854429, "y": 64.56256177 }, "geometry": { "type": "Point", "coordinates": [ 4512730.107863377779722, 9494080.366646125912666 ] } },
{ "type": "Feature", "properties": { "id": 16121, "name": "Вместе, репетиторский центр", "city": "Новодвинск (Новодвинск городской округ)", "street": "Ворошилова", "house": "3", "post": "164900", "x": 40.82817565, "y": 64.41611139 }, "geometry": { "type": "Point", "coordinates": [ 4544971.723376344889402, 9456226.599800392985344 ] } },
{ "type": "Feature", "properties": { "id": 16415, "name": "Региональный ресурсный центр инклюзивного образования, САФУ им. М.В. Ломоносова", "city": "Архангельск", "street": "Смольный Буян", "house": "1", "post": "163002", "x": 40.56539245, "y": 64.529697 }, "geometry": { "type": "Point", "coordinates": [ 4515718.831363312900066, 9485567.979971900582314 ] } },
{ "type": "Feature", "properties": { "id": 16417, "name": "Средняя общеобразовательная школа №3, МОУ, г. Новодвинск", "city": "Новодвинск (Новодвинск городской округ)", "street": "Двинская", "house": "43", "post": "164903", "x": 40.81817145, "y": 64.40645666 }, "geometry": { "type": "Point", "coordinates": [ 4543858.060926549136639, 9453738.201078779995441 ] } },
{ "type": "Feature", "properties": { "id": 17234, "name": "Эмоция, танцевальная студия", "city": "Архангельск", "street": "Обводный канал проспект", "house": "1 к3", "post": "163002", "x": 40.56898257, "y": 64.53415338000001 }, "geometry": { "type": "Point", "coordinates": [ 4516118.481693603098392, 9486721.637175887823105 ] } },
{ "type": "Feature", "properties": { "id": 17939, "name": "Средняя общеобразовательная школа №50 им. дважды Героя Советского Союза А.О. Шабалина", "city": "Архангельск", "street": "Краснофлотская", "house": "3", "post": "163020", "x": 40.51314095, "y": 64.57440602 }, "geometry": { "type": "Point", "coordinates": [ 4509902.220990132540464, 9497150.692178964614868 ] } },
{ "type": "Feature", "properties": { "id": 18168, "name": "Екатерининский лицей, школа современного образования", "city": "Архангельск", "street": "Ломоносова проспект", "house": "32", "post": "163002", "x": 40.55450104, "y": 64.53131515 }, "geometry": { "type": "Point", "coordinates": [ 4514506.405148088932037, 9485986.861065752804279 ] } },
{ "type": "Feature", "properties": { "id": 19225, "name": "Средняя школа №26 им. В.Д. Никитова", "city": "Архангельск", "street": "Воронина В.И.", "house": "37 к4", "post": "163062", "x": 40.67247648, "y": 64.50915682 }, "geometry": { "type": "Point", "coordinates": [ 4527639.371055014431477, 9480253.020139046013355 ] } },
{ "type": "Feature", "properties": { "id": 19510, "name": "Новодвинская гимназия", "city": "Новодвинск (Новодвинск городской округ)", "street": "Мельникова", "house": "14", "post": "164902", "x": 40.81073574, "y": 64.41517955 }, "geometry": { "type": "Point", "coordinates": [ 4543030.32147565856576, 9455986.390276685357094 ] } },
{ "type": "Feature", "properties": { "id": 20072, "name": "Betaflash, центр подготовки верхолазов", "city": "Архангельск", "street": "Новгородский проспект", "house": "32", "post": "163002", "x": 40.55284461, "y": 64.53344983 }, "geometry": { "type": "Point", "coordinates": [ 4514322.012203957885504, 9486539.491277784109116 ] } },
{ "type": "Feature", "properties": { "id": 20558, "name": "BRIGHT, образовательный центр", "city": "Северодвинск (Северодвинск городской округ)", "street": "Карла Маркса", "house": "33", "post": "164512", "x": 39.78439275, "y": 64.55618954000001 }, "geometry": { "type": "Point", "coordinates": [ 4428778.342449609190226, 9492429.077464394271374 ] } },
{ "type": "Feature", "properties": { "id": 20825, "name": "Средняя школа №11, МБОУ", "city": "Архангельск", "street": "Советских Космонавтов проспект", "house": "153", "post": "163000", "x": 40.53490767, "y": 64.551211 }, "geometry": { "type": "Point", "coordinates": [ 4512325.281176771968603, 9491139.215392261743546 ] } },
{ "type": "Feature", "properties": { "id": 21150, "name": "Средняя школа №35 им. героя Советского Союза П.И. Галушина", "city": "Архангельск", "street": "Фёдора Абрамова", "house": "14", "post": "163009", "x": 40.60685, "y": 64.52851834000001 }, "geometry": { "type": "Point", "coordinates": [ 4520333.864718850702047, 9485262.882735371589661 ] } },
{ "type": "Feature", "properties": { "id": 21437, "name": "Средняя школа №93 им. 77-ой Гвардейской Московско-Черниговской стрелковой дивизии с дошкольным отделением", "city": "Лесная Речка", "street": "Лахтинское шоссе", "house": "135", "post": "163039", "x": 40.63138707, "y": 64.42098624 }, "geometry": { "type": "Point", "coordinates": [ 4523065.318856813013554, 9457483.370649069547653 ] } },
{ "type": "Feature", "properties": { "id": 21540, "name": "Средняя общеобразовательная школа № 21 им. Героя Советского Союза А.Д. Юдина, МАОУ", "city": "Северодвинск (Северодвинск городской округ)", "street": "Серго Орджоникидзе", "house": "15", "post": "164500", "x": 39.79153882, "y": 64.55514278 }, "geometry": { "type": "Point", "coordinates": [ 4429573.839323181658983, 9492157.858716294169426 ] } },
{ "type": "Feature", "properties": { "id": 21574, "name": "Основная общеобразовательная школа №48 с дошкольным отделением", "city": "Архангельск", "street": "Приморская", "house": "13", "post": "163019", "x": 40.47074809, "y": 64.58374478 }, "geometry": { "type": "Point", "coordinates": [ 4505183.069401651620865, 9499572.473608553409576 ] } },
{ "type": "Feature", "properties": { "id": 22205, "name": "Средняя общеобразовательная школа №7, г. Новодвинск", "city": "Новодвинск (Новодвинск городской округ)", "street": "Космонавтов", "house": "5", "post": "164902", "x": 40.8019435, "y": 64.41861403 }, "geometry": { "type": "Point", "coordinates": [ 4542051.573795929551125, 9456871.770213067531586 ] } },
{ "type": "Feature", "properties": { "id": 22565, "name": "Северодвинская специальная (коррекционная) общеобразовательная школа-интернат", "city": "Северодвинск (Северодвинск городской округ)", "street": "Капитана Воронина", "house": "9", "post": "164504", "x": 39.80667055, "y": 64.56204724 }, "geometry": { "type": "Point", "coordinates": [ 4431258.295801606029272, 9493947.017860934138298 ] } },
{ "type": "Feature", "properties": { "id": 22963, "name": "Гимназия №21 им. И.А. Бродского, МБОУ", "city": "Архангельск", "street": "Урицкого", "house": "9", "post": "163002", "x": 40.55865363, "y": 64.53042014 }, "geometry": { "type": "Point", "coordinates": [ 4514968.669352363795042, 9485755.171954892575741 ] } },
{ "type": "Feature", "properties": { "id": 23912, "name": "Федеральный исследовательский центр комплексного изучения Арктики им. академика Н.П. Лаверова РАН, ФГБНУ", "city": "Архангельск", "street": "Ломоносова проспект", "house": "249", "post": "163001", "x": 40.52674603, "y": 64.55346247 }, "geometry": { "type": "Point", "coordinates": [ 4511416.731567926704884, 9491722.506982579827309 ] } },
{ "type": "Feature", "properties": { "id": 24186, "name": "Наставники, программа молодежного предпринимательства", "city": "Архангельск", "street": "Розы Люксембург", "house": "21", "post": "163046", "x": 40.54630219, "y": 64.53290578 }, "geometry": { "type": "Point", "coordinates": [ 4513593.713341001421213, 9486398.642424829304218 ] } },
{ "type": "Feature", "properties": { "id": 24630, "name": "Соломбальская специальная коррекционная общеобразовательная школа-интернат", "city": "Архангельск", "street": "Маяковского", "house": "8", "post": "163020", "x": 40.50442077, "y": 64.57797633 }, "geometry": { "type": "Point", "coordinates": [ 4508931.494992904365063, 9498076.46762390434742 ] } },
{ "type": "Feature", "properties": { "id": 24991, "name": "Средняя школа №5 с дошкольным отделением", "city": "Архангельск", "street": "Бадигина проезд", "house": "14", "post": "163045", "x": 40.5542815, "y": 64.55786015 }, "geometry": { "type": "Point", "coordinates": [ 4514481.966067083179951, 9492861.959249250590801 ] } },
{ "type": "Feature", "properties": { "id": 25007, "name": "Северный (Арктический) федеральный университет им. М.В. Ломоносова, ФГАОУ ВО", "city": "Архангельск", "street": "Северной Двины набережная", "house": "54 к1", "post": "163069", "x": 40.52687011, "y": 64.53188361 }, "geometry": { "type": "Point", "coordinates": [ 4511430.54409034922719, 9486134.020900182425976 ] } },
{ "type": "Feature", "properties": { "id": 25238, "name": "Непоседы, детский развивающий центр", "city": "Северодвинск (Северодвинск городской округ)", "street": "Трухинова", "house": "3", "post": "164522", "x": 39.76235651, "y": 64.55163061 }, "geometry": { "type": "Point", "coordinates": [ 4426325.279433820396662, 9491247.920710116624832 ] } },
{ "type": "Feature", "properties": { "id": 26215, "name": "Средняя общеобразовательная школа №54 с дошкольным отделением", "city": "Архангельск", "street": "Луганская", "house": "6", "post": "163018", "x": 40.4599832, "y": 64.62600994 }, "geometry": { "type": "Point", "coordinates": [ 4503984.727328412234783, 9510543.318433120846748 ] } },
{ "type": "Feature", "properties": { "id": 26277, "name": "Центр исторических ремесел", "city": "Архангельск", "street": "Троицкий проспект", "house": "94", "post": "163000", "x": 40.51687658, "y": 64.54267061 }, "geometry": { "type": "Point", "coordinates": [ 4510318.069419514387846, 9488927.081975035369396 ] } },
{ "type": "Feature", "properties": { "id": 26856, "name": "Средняя общеобразовательная школа №10", "city": "Архангельск", "street": "Воскресенская", "house": "95/3", "post": "163071", "x": 40.55476492, "y": 64.54847322000001 }, "geometry": { "type": "Point", "coordinates": [ 4514535.780135322362185, 9490429.999657057225704 ] } },
{ "type": "Feature", "properties": { "id": 27561, "name": "Северный (Арктический) федеральный университет им. М.В. Ломоносова, ФГАОУ ВО", "city": "Архангельск", "street": "Урицкого", "house": "56", "post": "163060/1", "x": 40.56959094, "y": 64.5380936 }, "geometry": { "type": "Point", "coordinates": [ 4516186.205132223665714, 9487741.829041056334972 ] } },
{ "type": "Feature", "properties": { "id": 27593, "name": "Средняя школа № 49 им. В.Ф. Чуданова, г. Архангельск", "city": "Архангельск", "street": "Никольский проспект", "house": "152", "post": "163020", "x": 40.5049366, "y": 64.58862847 }, "geometry": { "type": "Point", "coordinates": [ 4508988.916925836354494, 9500839.271244667470455 ] } },
{ "type": "Feature", "properties": { "id": 28030, "name": "Архангельский государственный лицей им. М.В. Ломоносова", "city": "Архангельск", "street": "Северной Двины набережная", "house": "25", "post": "163069", "x": 40.54316562, "y": 64.52952423000001 }, "geometry": { "type": "Point", "coordinates": [ 4513244.55196576192975, 9485523.257472686469555 ] } },
{ "type": "Feature", "properties": { "id": 28509, "name": "Северный (Арктический) федеральный университет им. М.В. Ломоносова, ФГАОУ ВО", "city": "Архангельск", "street": "Ломоносова проспект", "house": "6", "post": "163002", "x": 40.56366078, "y": 64.53042427 }, "geometry": { "type": "Point", "coordinates": [ 4515526.062740691006184, 9485756.241060718894005 ] } },
{ "type": "Feature", "properties": { "id": 29764, "name": "Средняя школа №30, МБОУ", "city": "Архангельск", "street": "Квартальная", "house": "10", "post": "163030", "x": 40.68982401, "y": 64.50495556 }, "geometry": { "type": "Point", "coordinates": [ 4529570.489261131733656, 9479166.39794197678566 ] } },
{ "type": "Feature", "properties": { "id": 30322, "name": "Mary Kay, обучающий центр", "city": "Архангельск", "street": "Поморская", "house": "5", "post": "163069", "x": 40.524264, "y": 64.53484473 }, "geometry": { "type": "Point", "coordinates": [ 4511140.433252200484276, 9486900.629124343395233 ] } },
{ "type": "Feature", "properties": { "id": 30457, "name": "Средняя общеобразовательная школа №2 им. В.И. Захарова, г. Новодвинск", "city": "Новодвинск (Новодвинск городской округ)", "street": "Солнечная", "house": "15", "post": "164901", "x": 40.78701842, "y": 64.41973178000001 }, "geometry": { "type": "Point", "coordinates": [ 4540390.121490277349949, 9457159.940633811056614 ] } },
{ "type": "Feature", "properties": { "id": 30813, "name": "Средняя школа №51 им. Ф.А. Абрамова", "city": "Архангельск", "street": "Пушкинская", "house": "6", "post": "163059", "x": 40.5812537, "y": 64.59870456 }, "geometry": { "type": "Point", "coordinates": [ 4517484.497636657208204, 9503453.662284672260284 ] } },
{ "type": "Feature", "properties": { "id": 31056, "name": "Непоседы, детский развивающий центр", "city": "Северодвинск (Северодвинск городской округ)", "street": "Капитана Воронина", "house": "36", "post": "164504", "x": 39.80762594, "y": 64.55639071 }, "geometry": { "type": "Point", "coordinates": [ 4431364.649329915642738, 9492481.20242565125227 ] } },
{ "type": "Feature", "properties": { "id": 31909, "name": "Средняя общеобразовательная школа №11, МАОУ, г. Северодвинск", "city": "Северодвинск (Северодвинск городской округ)", "street": "Строителей", "house": "43а", "post": "164521", "x": 39.84514588, "y": 64.55732386 }, "geometry": { "type": "Point", "coordinates": [ 4435541.349945314228535, 9492722.995036974549294 ] } },
{ "type": "Feature", "properties": { "id": 32075, "name": "Северный (Арктический) федеральный университет им. М.В. Ломоносова, ФГАОУ ВО", "city": "Северодвинск (Северодвинск городской округ)", "street": "Торцева", "house": "6", "post": "164520", "x": 39.84597317, "y": 64.56993127 }, "geometry": { "type": "Point", "coordinates": [ 4435633.443446852266788, 9495990.568287886679173 ] } },
{ "type": "Feature", "properties": { "id": 32354, "name": "Архангельский колледж культуры и искусства, ГБПОУ", "city": "Архангельск", "street": "Троицкий проспект", "house": "95", "post": "163000", "x": 40.51978853, "y": 64.55107035 }, "geometry": { "type": "Point", "coordinates": [ 4510642.226210735738277, 9491102.778591722249985 ] } },
{ "type": "Feature", "properties": { "id": 32450, "name": "Профессионал, учебно-консультационный центр", "city": "Архангельск", "street": "Поморская", "house": "2", "post": "163069", "x": 40.52430916, "y": 64.53356563 }, "geometry": { "type": "Point", "coordinates": [ 4511145.460440400987864, 9486569.471048727631569 ] } },
{ "type": "Feature", "properties": { "id": 32552, "name": "Северный (Арктический) федеральный университет им. М.В. Ломоносова, ФГАОУ ВО", "city": "Северодвинск (Северодвинск городской округ)", "street": "Труда проспект", "house": "7", "post": "164500", "x": 39.79824053, "y": 64.56297927 }, "geometry": { "type": "Point", "coordinates": [ 4430319.87026783451438, 9494188.570385150611401 ] } },
{ "type": "Feature", "properties": { "id": 32922, "name": "Azalea, студия", "city": "Архангельск", "street": "Поморская", "house": "15", "post": "163069", "x": 40.52797583, "y": 64.53717606 }, "geometry": { "type": "Point", "coordinates": [ 4511553.632277704775333, 9487504.248729228973389 ] } },
{ "type": "Feature", "properties": { "id": 33974, "name": "Северный (Арктический) федеральный университет им. М.В. Ломоносова, ФГАОУ ВО", "city": "Северодвинск (Северодвинск городской округ)", "street": "Капитана Воронина", "house": "6а к1", "post": "164500", "x": 39.80180021, "y": 64.5622618 }, "geometry": { "type": "Point", "coordinates": [ 4430716.132032815366983, 9494002.624254897236824 ] } },
{ "type": "Feature", "properties": { "id": 34582, "name": "Северодвинский техникум электромонтажа и связи", "city": "Северодвинск (Северодвинск городской округ)", "street": "Полярная", "house": "24в", "post": "164501", "x": 39.83126213, "y": 64.56122018000001 }, "geometry": { "type": "Point", "coordinates": [ 4433995.817965008318424, 9493732.677138887345791 ] } },
{ "type": "Feature", "properties": { "id": 34859, "name": "Северный (Арктический) федеральный университет им. М.В. Ломоносова, ФГАОУ ВО", "city": "Архангельск", "street": "Смольный Буян", "house": "1", "post": "163002", "x": 40.56539245, "y": 64.529697 }, "geometry": { "type": "Point", "coordinates": [ 4515718.831363312900066, 9485567.979971900582314 ] } },
{ "type": "Feature", "properties": { "id": 34907, "name": "Средняя школа №28, МБОУ", "city": "Архангельск", "street": "Воронина В.И.", "house": "27", "post": "163057", "x": 40.68015762, "y": 64.50651604 }, "geometry": { "type": "Point", "coordinates": [ 4528494.431648515164852, 9479569.984069846570492 ] } },
{ "type": "Feature", "properties": { "id": 35280, "name": "Архангельский музыкальный колледж", "city": "Архангельск", "street": "Ломоносова проспект", "house": "211", "post": "163000", "x": 40.52368402, "y": 64.54808982 }, "geometry": { "type": "Point", "coordinates": [ 4511075.870173927396536, 9490330.686435639858246 ] } },
{ "type": "Feature", "properties": { "id": 35334, "name": "Ксения, университетская гимназия с детским садом", "city": "Архангельск", "street": "Ленинградский проспект", "house": "61", "post": "163009", "x": 40.59319933, "y": 64.52648336 }, "geometry": { "type": "Point", "coordinates": [ 4518814.279085464775562, 9484736.157280460000038 ] } },
{ "type": "Feature", "properties": { "id": 35970, "name": "Средняя школа №27", "city": "Архангельск", "street": "Циолковского", "house": "4", "post": "163016", "x": 40.70676049, "y": 64.4902783 }, "geometry": { "type": "Point", "coordinates": [ 4531455.849590558558702, 9475371.553382679820061 ] } },
{ "type": "Feature", "properties": { "id": 36498, "name": "Северодвинская гимназия №14, МАОУ", "city": "Северодвинск (Северодвинск городской округ)", "street": "Торцева", "house": "59", "post": "164501", "x": 39.81634692, "y": 64.56466447 }, "geometry": { "type": "Point", "coordinates": [ 4432335.464382734149694, 9494625.341585464775562 ] } },
{ "type": "Feature", "properties": { "id": 36696, "name": "Гуманитарная гимназия №8", "city": "Северодвинск (Северодвинск городской округ)", "street": "Беломорский проспект", "house": "22", "post": "164520", "x": 39.84063353, "y": 64.57001052 }, "geometry": { "type": "Point", "coordinates": [ 4435039.037441033869982, 9496011.112988941371441 ] } },
{ "type": "Feature", "properties": { "id": 36969, "name": "Студия обучения игре на гитаре", "city": "Архангельск", "street": "Московский проспект", "house": "49", "post": "163065", "x": 40.61931265, "y": 64.53245917 }, "geometry": { "type": "Point", "coordinates": [ 4521721.200570784509182, 9486283.021867133677006 ] } },
{ "type": "Feature", "properties": { "id": 37033, "name": "Архангельский областной институт открытого образования, ГАОУ", "city": "Архангельск", "street": "Новгородский проспект", "house": "66", "post": "163046", "x": 40.54095895, "y": 64.53633085 }, "geometry": { "type": "Point", "coordinates": [ 4512998.906585015356541, 9487285.404026582837105 ] } },
{ "type": "Feature", "properties": { "id": 37524, "name": "Приморская детская школа искусств", "city": "Васьково (Приморский район)", "street": "Васьково", "house": "51", "post": "163512", "x": 40.45476627, "y": 64.40988986000001 }, "geometry": { "type": "Point", "coordinates": [ 4503403.981337312608957, 9454622.969678141176701 ] } },
{ "type": "Feature", "properties": { "id": 37865, "name": "Приморская средняя школа с дошкольным отделением", "city": "Рикасиха (Приморский район)", "street": "Рикасиха деревня", "house": "65", "post": "163523", "x": 40.16337314, "y": 64.53803455000001 }, "geometry": { "type": "Point", "coordinates": [ 4470966.24648504704237, 9487726.538875892758369 ] } },
{ "type": "Feature", "properties": { "id": 38135, "name": "Лигатура, межкафедральное студенческое хирургическое объединение, СГМУ", "city": "Архангельск", "street": "Сибиряковцев проезд", "house": "2 к3", "post": "163045", "x": 40.54952753, "y": 64.56351567 }, "geometry": { "type": "Point", "coordinates": [ 4513952.756547436118126, 9494327.591945506632328 ] } },
{ "type": "Feature", "properties": { "id": 38163, "name": "Северодвинский Дворец Молодежи (Строитель), МАУК, открытая площадка для обучения первоначальным навыкам вождения", "city": "Северодвинск (Северодвинск городской округ)", "street": "Ленина проспект", "house": "47", "post": "164507", "x": 39.8347524, "y": 64.55356966 }, "geometry": { "type": "Point", "coordinates": [ 4434384.353044144809246, 9491750.2780522108078 ] } },
{ "type": "Feature", "properties": { "id": 38171, "name": "English Club, кабинет английского языка", "city": "Архангельск", "street": "Тимме", "house": "17 к2", "post": "163071", "x": 40.55863997, "y": 64.54905413 }, "geometry": { "type": "Point", "coordinates": [ 4514967.148728124797344, 9490580.477131076157093 ] } },
{ "type": "Feature", "properties": { "id": 39646, "name": "Школа скорочтения Шамиля Ахмадуллина", "city": "Архангельск", "street": "Троицкий проспект", "house": "67", "post": "163000", "x": 40.51622744, "y": 64.54473722 }, "geometry": { "type": "Point", "coordinates": [ 4510245.807485271245241, 9489462.31215238571167 ] } },
{ "type": "Feature", "properties": { "id": 40071, "name": "Средняя школа №95 им. П.Г. Лушева с дошкольным отделением", "city": "Архангельск", "street": "Ленинградский проспект", "house": "169", "post": "163015", "x": 40.64708102, "y": 64.51340915 }, "geometry": { "type": "Point", "coordinates": [ 4524812.361379340291023, 9481353.021370731294155 ] } },
{ "type": "Feature", "properties": { "id": 40932, "name": "Престиж, центр изучения иностранных языков", "city": "Архангельск", "street": "Урицкого", "house": "17", "post": "163002", "x": 40.56095511, "y": 64.53220622000001 }, "geometry": { "type": "Point", "coordinates": [ 4515224.868934035301208, 9486217.537786640226841 ] } },
{ "type": "Feature", "properties": { "id": 41376, "name": "Заостровская средняя школа, МБОУ", "city": "Большое Анисимово (Приморский район)", "street": "60 лет Октября", "house": "8", "post": "163515", "x": 40.50634077, "y": 64.48209341 }, "geometry": { "type": "Point", "coordinates": [ 4509145.228415228426456, 9473256.213041476905346 ] } },
{ "type": "Feature", "properties": { "id": 41732, "name": "Северодвинский техникум социальной инфраструктуры", "city": "Северодвинск (Северодвинск городской округ)", "street": "Советских Космонавтов", "house": "20", "post": "164515", "x": 39.78534588, "y": 64.54370333 }, "geometry": { "type": "Point", "coordinates": [ 4428884.444395877420902, 9489194.540485620498657 ] } },
{ "type": "Feature", "properties": { "id": 41749, "name": "LiLi Voice, школа вокала", "city": "Архангельск", "street": "Садовая", "house": "18", "post": "163000", "x": 40.53189193, "y": 64.54966054 }, "geometry": { "type": "Point", "coordinates": [ 4511989.570535596460104, 9490737.563481196761131 ] } },
{ "type": "Feature", "properties": { "id": 41945, "name": "Средняя школа №20, МБОУ", "city": "Архангельск", "street": "23 Гвардейской Дивизии", "house": "8", "post": "163060", "x": 40.57068976, "y": 64.54495891000001 }, "geometry": { "type": "Point", "coordinates": [ 4516308.525215089321136, 9489519.729931078851223 ] } },
{ "type": "Feature", "properties": { "id": 42189, "name": "Арктикум, учебный центр", "city": "Архангельск", "street": "Карла Маркса", "house": "37", "post": "163000", "x": 40.52803247, "y": 64.54413596000001 }, "geometry": { "type": "Point", "coordinates": [ 4511559.937413666397333, 9489306.58797550201416 ] } },
{ "type": "Feature", "properties": { "id": 42687, "name": "Средняя общеобразовательная школа №6 с углубленным изучением иностранных языков", "city": "Северодвинск (Северодвинск городской округ)", "street": "Ломоносова", "house": "83", "post": "164515", "x": 39.78242405, "y": 64.54951697 }, "geometry": { "type": "Point", "coordinates": [ 4428559.187768086791039, 9490700.372342057526112 ] } },
{ "type": "Feature", "properties": { "id": 42883, "name": "И сыграем, и споём, ансамбль", "city": "Северодвинск (Северодвинск городской округ)", "street": "Ленина проспект", "house": "47", "post": "164507", "x": 39.8347524, "y": 64.55356966 }, "geometry": { "type": "Point", "coordinates": [ 4434384.353044144809246, 9491750.2780522108078 ] } },
{ "type": "Feature", "properties": { "id": 42935, "name": "Северный государственный медицинский университет, ФГБОУ ВО", "city": "Архангельск", "street": "Троицкий проспект", "house": "51", "post": "163000", "x": 40.51400075, "y": 64.54213724 }, "geometry": { "type": "Point", "coordinates": [ 4509997.933488309383392, 9488788.951358281075954 ] } },
{ "type": "Feature", "properties": { "id": 43044, "name": "Средняя школа №51 им. Ф.А. Абрамова", "city": "Архангельск", "street": "Малиновского", "house": "4", "post": "163059", "x": 40.59621406, "y": 64.59965752 }, "geometry": { "type": "Point", "coordinates": [ 4519149.877293944358826, 9503700.972006998956203 ] } },
{ "type": "Feature", "properties": { "id": 43190, "name": "Лингва плюс, школа английского языка, г. Архангельск", "city": "Архангельск", "street": "Поморская", "house": "5", "post": "163069", "x": 40.524264, "y": 64.53484473 }, "geometry": { "type": "Point", "coordinates": [ 4511140.433252200484276, 9486900.629124343395233 ] } },
{ "type": "Feature", "properties": { "id": 44184, "name": "Северный государственный медицинский университет, ФГБОУ ВО", "city": "Архангельск", "street": "Самойло", "house": "9", "post": "163045", "x": 40.54122793, "y": 64.55961316 }, "geometry": { "type": "Point", "coordinates": [ 4513028.849301647394896, 9493316.220719903707504 ] } },
{ "type": "Feature", "properties": { "id": 44540, "name": "Северодвинский Дворец Молодежи (Строитель), МАУК, открытая площадка для обучения первоначальным навыкам вождения", "city": "Северодвинск (Северодвинск городской округ)", "street": "Ленина проспект", "house": "автодром", "post": "164507", "x": 39.83359317, "y": 64.55170318 }, "geometry": { "type": "Point", "coordinates": [ 4434255.308150824159384, 9491266.721063122153282 ] } },
{ "type": "Feature", "properties": { "id": 45813, "name": "Инженерный центр, САФУ им. М.В. Ломоносова", "city": "Архангельск", "street": "Северной Двины набережная", "house": "17 к1", "post": "163002", "x": 40.54981142, "y": 64.52965365 }, "geometry": { "type": "Point", "coordinates": [ 4513984.359037674963474, 9485556.758550710976124 ] } },
{ "type": "Feature", "properties": { "id": 46080, "name": "Синергия, Московский финансово-промышленный университет, НОЧУ ВО Синергия", "city": "Северодвинск (Северодвинск городской округ)", "street": "Труда проспект", "house": "40", "post": "164500", "x": 39.79992352, "y": 64.55563634000001 }, "geometry": { "type": "Point", "coordinates": [ 4430507.219857640564442, 9492285.740338690578938 ] } },
{ "type": "Feature", "properties": { "id": 46234, "name": "Архангельский политехнический техникум, ГАПОУ", "city": "Архангельск", "street": "Ломоносова проспект", "house": "15", "post": "163002", "x": 40.56106088, "y": 64.52914321 }, "geometry": { "type": "Point", "coordinates": [ 4515236.643196582794189, 9485424.629274666309357 ] } },
{ "type": "Feature", "properties": { "id": 46981, "name": "Катунинская средняя школа", "city": "Катунино (Приморский район)", "street": "Катунина", "house": "11", "post": "163513", "x": 40.62273533, "y": 64.39248103 }, "geometry": { "type": "Point", "coordinates": [ 4522102.211565535515547, 9450137.689015112817287 ] } },
{ "type": "Feature", "properties": { "id": 47049, "name": "Институт судебных экспертиз и криминалистики", "city": "Северодвинск (Северодвинск городской округ)", "street": "Победы проспект", "house": "84", "post": "164502", "x": 39.79037624, "y": 64.53513645 }, "geometry": { "type": "Point", "coordinates": [ 4429444.421509582549334, 9486976.157397784292698 ] } },
{ "type": "Feature", "properties": { "id": 47467, "name": "Северодвинский центр высшего водительского мастерства", "city": "Северодвинск (Северодвинск городской округ)", "street": "Ленина проспект", "house": "47", "post": "164507", "x": 39.8347524, "y": 64.55356966 }, "geometry": { "type": "Point", "coordinates": [ 4434384.353044144809246, 9491750.2780522108078 ] } },
{ "type": "Feature", "properties": { "id": 47596, "name": "Средняя общеобразовательная школа №24 с дошкольным отделением", "city": "Северодвинск (Северодвинск городской округ)", "street": "Логинова", "house": "13а", "post": "164509", "x": 39.80709226, "y": 64.59640956 }, "geometry": { "type": "Point", "coordinates": [ 4431305.240344066172838, 9502858.105349577963352 ] } },
{ "type": "Feature", "properties": { "id": 47638, "name": "ArtON, творческая студия", "city": "Архангельск", "street": "Воскресенская", "house": "6", "post": "163000", "x": 40.52205194, "y": 64.53931551 }, "geometry": { "type": "Point", "coordinates": [ 4510894.187859397381544, 9488058.232840158045292 ] } },
{ "type": "Feature", "properties": { "id": 48236, "name": "Федеральный исследовательский центр комплексного изучения Арктики им. академика Н.П. Лаверова РАН, ФГБНУ", "city": "Архангельск", "street": "Никольский проспект", "house": "20", "post": "163020", "x": 40.51658775, "y": 64.57034619 }, "geometry": { "type": "Point", "coordinates": [ 4510285.917010989040136, 9496098.132450394332409 ] } },
{ "type": "Feature", "properties": { "id": 48272, "name": "Талажская средняя общеобразовательная школа с дошкольным отделением", "city": "Талаги (Приморский район)", "street": "Талаги посёлок", "house": "28", "post": "163530", "x": 40.66952387, "y": 64.62312901 }, "geometry": { "type": "Point", "coordinates": [ 4527310.688013292849064, 9509794.968504995107651 ] } },
{ "type": "Feature", "properties": { "id": 48759, "name": "Северодвинский техникум электромонтажа и связи", "city": "Северодвинск (Северодвинск городской округ)", "street": "Чехова", "house": "1а", "post": "164504", "x": 39.81701298, "y": 64.55397304 }, "geometry": { "type": "Point", "coordinates": [ 4432409.609842780977488, 9491854.787791527807713 ] } },
{ "type": "Feature", "properties": { "id": 48766, "name": "Лицей №17", "city": "Северодвинск (Северодвинск городской округ)", "street": "Капитана Воронина", "house": "24", "post": "164504", "x": 39.8079683, "y": 64.55831526 }, "geometry": { "type": "Point", "coordinates": [ 4431402.760670777410269, 9492979.890131399035454 ] } },
{ "type": "Feature", "properties": { "id": 49862, "name": "Архангельский медицинский колледж", "city": "Северодвинск (Северодвинск городской округ)", "street": "Беломорский проспект", "house": "76", "post": "164521", "x": 39.85086702, "y": 64.5562647 }, "geometry": { "type": "Point", "coordinates": [ 4436178.224336866289377, 9492448.552053213119507 ] } },
{ "type": "Feature", "properties": { "id": 49897, "name": "Chef performance, кулинарная студия", "city": "Архангельск", "street": "Тимме", "house": "25", "post": "163071", "x": 40.55533431, "y": 64.5531102 }, "geometry": { "type": "Point", "coordinates": [ 4514599.164340179413557, 9491631.240705333650112 ] } },
{ "type": "Feature", "properties": { "id": 50386, "name": "Федерация киберспорта Архангельской области", "city": "Архангельск", "street": "Ломоносова проспект", "house": "269", "post": "163001", "x": 40.52793793, "y": 64.55734516 }, "geometry": { "type": "Point", "coordinates": [ 4511549.413269009441137, 9492728.514270521700382 ] } },
{ "type": "Feature", "properties": { "id": 51630, "name": "Школа скорочтения Шамиля Ахмадуллина", "city": "Архангельск", "street": "Прокопия Галушина", "house": "21/1", "post": "163065", "x": 40.62073663, "y": 64.53351476 }, "geometry": { "type": "Point", "coordinates": [ 4521879.717299290001392, 9486556.301163055002689 ] } },
{ "type": "Feature", "properties": { "id": 51809, "name": "Центр лечебного массажа Тимура Огадярова", "city": "Архангельск", "street": "Советская", "house": "5", "post": "163020", "x": 40.5230458, "y": 64.5703328 }, "geometry": { "type": "Point", "coordinates": [ 4511004.823848512023687, 9496094.661191493272781 ] } },
{ "type": "Feature", "properties": { "id": 51907, "name": "Специальная (коррекционная) общеобразовательная школа №15", "city": "Северодвинск (Северодвинск городской округ)", "street": "Труда проспект", "house": "25", "post": "164500", "x": 39.80190767, "y": 64.55704335 }, "geometry": { "type": "Point", "coordinates": [ 4430728.094425301998854, 9492650.309983819723129 ] } },
{ "type": "Feature", "properties": { "id": 52439, "name": "Ok, студия английского языка", "city": "Северодвинск (Северодвинск городской округ)", "street": "Пионерская", "house": "14а", "post": "164520", "x": 39.84209538, "y": 64.56401873 }, "geometry": { "type": "Point", "coordinates": [ 4435201.769838642328978, 9494457.975092403590679 ] } },
{ "type": "Feature", "properties": { "id": 53200, "name": "Специальная коррекционная общеобразовательная школа №5, Архангельской области", "city": "Новодвинск (Новодвинск городской округ)", "street": "3-й Пятилетки", "house": "13", "post": "164900", "x": 40.80711372, "y": 64.41377493 }, "geometry": { "type": "Point", "coordinates": [ 4542627.120053619146347, 9455624.323040626943111 ] } },
{ "type": "Feature", "properties": { "id": 53312, "name": "Средняя общеобразовательная школа №60 с дошкольным отделением", "city": "Архангельск", "street": "Мудьюгская", "house": "25", "post": "163029", "x": 40.60971988, "y": 64.70611996 }, "geometry": { "type": "Point", "coordinates": [ 4520653.338299095630646, 9531384.529875293374062 ] } },
{ "type": "Feature", "properties": { "id": 53827, "name": "Средняя школа №27", "city": "Архангельск", "street": "Кирова", "house": "7", "post": "163016", "x": 40.70176988, "y": 64.49126626 }, "geometry": { "type": "Point", "coordinates": [ 4530900.297426603734493, 9475626.929106257855892 ] } },
{ "type": "Feature", "properties": { "id": 54057, "name": "Непоседы, детский развивающий центр", "city": "Северодвинск (Северодвинск городской округ)", "street": "Дзержинского", "house": "11а", "post": "164524", "x": 39.80509236, "y": 64.59978665 }, "geometry": { "type": "Point", "coordinates": [ 4431082.612494431436062, 9503734.484158121049404 ] } },
{ "type": "Feature", "properties": { "id": 54116, "name": "Северный (Арктический) федеральный университет им. М.В. Ломоносова, ФГАОУ ВО", "city": "Архангельск", "street": "Смольный Буян", "house": "7", "post": "163002", "x": 40.56652961, "y": 64.5327443 }, "geometry": { "type": "Point", "coordinates": [ 4515845.41943546757102, 9486356.83748272061348 ] } },
{ "type": "Feature", "properties": { "id": 54158, "name": "Архангельский колледж культуры и искусства, ГБПОУ", "city": "Архангельск", "street": "Троицкий проспект", "house": "93", "post": "163000", "x": 40.51827862, "y": 64.55051202 }, "geometry": { "type": "Point", "coordinates": [ 4510474.143798388540745, 9490958.139430060982704 ] } },
{ "type": "Feature", "properties": { "id": 54876, "name": "ДемГер, учебный центр", "city": "Архангельск", "street": "Новгородский проспект", "house": "74", "post": "163069", "x": 40.53888476, "y": 64.53666711 }, "geometry": { "type": "Point", "coordinates": [ 4512768.00881040096283, 9487372.468819186091423 ] } },
{ "type": "Feature", "properties": { "id": 55014, "name": "Office", "city": "Северодвинск (Северодвинск городской округ)", "street": "Профсоюзная", "house": "21", "post": "164521", "x": 39.84015493, "y": 64.56077458 }, "geometry": { "type": "Point", "coordinates": [ 4434985.759932734072208, 9493617.198218703269958 ] } },
{ "type": "Feature", "properties": { "id": 55033, "name": "Средняя общеобразовательная школа №60 с дошкольным отделением", "city": "Архангельск", "street": "Мудьюгская", "house": "17 к1", "post": "163029", "x": 40.60659395, "y": 64.70688836 }, "geometry": { "type": "Point", "coordinates": [ 4520305.361363232135773, 9531584.733151242136955 ] } },
{ "type": "Feature", "properties": { "id": 55189, "name": "Oк, студия английского языка", "city": "Архангельск", "street": "Тимме", "house": "23", "post": "163071", "x": 40.55626755, "y": 64.55231339 }, "geometry": { "type": "Point", "coordinates": [ 4514703.052141770720482, 9491424.80714613199234 ] } },
{ "type": "Feature", "properties": { "id": 55227, "name": "Oк, студия английского языка", "city": "Архангельск", "street": "Красных Маршалов", "house": "22", "post": "163059", "x": 40.59015954, "y": 64.59582552000001 }, "geometry": { "type": "Point", "coordinates": [ 4518475.891210544854403, 9502706.553858943283558 ] } },
{ "type": "Feature", "properties": { "id": 55295, "name": "Детская школа искусств, МОУ ДО, г. Новодвинск", "city": "Новодвинск (Новодвинск городской округ)", "street": "50-летия Октября", "house": "38а", "post": "164902", "x": 40.80866569, "y": 64.41882143 }, "geometry": { "type": "Point", "coordinates": [ 4542799.884563747793436, 9456925.239730760455132 ] } },
{ "type": "Feature", "properties": { "id": 55551, "name": "Старт, центр подготовки охранников", "city": "Архангельск", "street": "Попова", "house": "18", "post": "163000", "x": 40.52231614, "y": 64.54657213 }, "geometry": { "type": "Point", "coordinates": [ 4510923.598468855023384, 9489937.568466700613499 ] } },
{ "type": "Feature", "properties": { "id": 57637, "name": "Детская школа искусств №34, МБУ ДО", "city": "Северодвинск (Северодвинск городской округ)", "street": "Гоголя", "house": "4", "post": "164509", "x": 39.81441487, "y": 64.59477353 }, "geometry": { "type": "Point", "coordinates": [ 4432120.389560546725988, 9502433.583069294691086 ] } },
{ "type": "Feature", "properties": { "id": 58491, "name": "Лицей информационных технологий, НОУ", "city": "Архангельск", "street": "Смольный Буян", "house": "25 к1", "post": "163060", "x": 40.57299917, "y": 64.53878213 }, "geometry": { "type": "Point", "coordinates": [ 4516565.607560325413942, 9487920.116622090339661 ] } },
{ "type": "Feature", "properties": { "id": 58848, "name": "Северодвинский колледж управления и информационных технологий", "city": "Северодвинск (Северодвинск городской округ)", "street": "Пионерская", "house": "14а", "post": "164520", "x": 39.84209538, "y": 64.56401873 }, "geometry": { "type": "Point", "coordinates": [ 4435201.769838642328978, 9494457.975092403590679 ] } },
{ "type": "Feature", "properties": { "id": 59731, "name": "Всероссийский центр карантина растений, ФГБУ, Архангельский территориальный отдел Карельского филиала", "city": "Архангельск", "street": "Свободы", "house": "53", "post": "163000", "x": 40.52846736, "y": 64.54271002 }, "geometry": { "type": "Point", "coordinates": [ 4511608.349147010594606, 9488937.28836976736784 ] } },
{ "type": "Feature", "properties": { "id": 60989, "name": "Akimova vocal class, студия гармоничного развития творческого человека", "city": "Архангельск", "street": "Новгородский проспект", "house": "32", "post": "163002", "x": 40.55284461, "y": 64.53344983 }, "geometry": { "type": "Point", "coordinates": [ 4514322.012203957885504, 9486539.491277784109116 ] } },
{ "type": "Feature", "properties": { "id": 61126, "name": "Ступени, учебный центр, г. Северодвинск", "city": "Северодвинск (Северодвинск городской округ)", "street": "Комсомольская", "house": "6а", "post": "164521", "x": 39.85466707, "y": 64.56069624 }, "geometry": { "type": "Point", "coordinates": [ 4436601.243967857211828, 9493596.896307446062565 ] } },
{ "type": "Feature", "properties": { "id": 61652, "name": "Средняя общеобразовательная школа №7, г. Новодвинск", "city": "Новодвинск (Новодвинск городской округ)", "street": "Солнечная", "house": "1 к1", "post": "164901", "x": 40.79591723, "y": 64.41471933 }, "geometry": { "type": "Point", "coordinates": [ 4541380.732488140463829, 9455867.757869705557823 ] } },
{ "type": "Feature", "properties": { "id": 61688, "name": "Северный (Арктический) федеральный университет им. М.В. Ломоносова, ФГАОУ ВО", "city": "Архангельск", "street": "Папанина", "house": "28 к2", "post": "163062", "x": 40.68148222, "y": 64.51531167 }, "geometry": { "type": "Point", "coordinates": [ 4528641.885446026921272, 9481845.224504455924034 ] } },
{ "type": "Feature", "properties": { "id": 61751, "name": "Северодвинский техникум электромонтажа и связи", "city": "Северодвинск (Северодвинск городской округ)", "street": "Индустриальная", "house": "35а", "post": "164520", "x": 39.83517815, "y": 64.56185235 }, "geometry": { "type": "Point", "coordinates": [ 4434431.747317343950272, 9493896.509617492556572 ] } },
{ "type": "Feature", "properties": { "id": 61790, "name": "Северный (Арктический) федеральный университет им. М.В. Ломоносова, ФГАОУ ВО", "city": "Архангельск", "street": "Ломоносова проспект", "house": "58", "post": "", "x": 40.5480438, "y": 64.53236171 }, "geometry": { "type": "Point", "coordinates": [ 4513787.588479369878769, 9486257.791202321648598 ] } },
{ "type": "Feature", "properties": { "id": 62093, "name": "Средняя школа № 68 с дошкольным отделением", "city": "Архангельск", "street": "Менделеева", "house": "19", "post": "163022", "x": 40.5421866, "y": 64.64267398 }, "geometry": { "type": "Point", "coordinates": [ 4513135.567957881838083, 9514873.524222791194916 ] } },
{ "type": "Feature", "properties": { "id": 62556, "name": "Северный кванториум, МАОУ ДО", "city": "Северодвинск (Северодвинск городской округ)", "street": "Карла Маркса", "house": "24а", "post": "164500", "x": 39.7941271, "y": 64.56026426 }, "geometry": { "type": "Point", "coordinates": [ 4429861.965334817767143, 9493484.949185758829117 ] } },
{ "type": "Feature", "properties": { "id": 64656, "name": "Средняя общеобразовательная школа №3 им. Героя Советского Союза К.М. Трухинова, МАОУ", "city": "Северодвинск (Северодвинск городской округ)", "street": "Железнодорожная", "house": "21в", "post": "164520", "x": 39.8568588, "y": 64.56673009 }, "geometry": { "type": "Point", "coordinates": [ 4436845.226235408335924, 9495160.747129380702972 ] } },
{ "type": "Feature", "properties": { "id": 64782, "name": "Северный (Арктический) федеральный университет им. М.В. Ломоносова, ФГАОУ ВО", "city": "Северодвинск (Северодвинск городской округ)", "street": "Карла Маркса", "house": "13а", "post": "164500", "x": 39.8034891, "y": 64.55936939 }, "geometry": { "type": "Point", "coordinates": [ 4430904.138407621532679, 9493253.050296142697334 ] } },
{ "type": "Feature", "properties": { "id": 65110, "name": "Средняя школа №70 им. Александра Грина с дошкольным отделением", "city": "Архангельск", "street": "Кегостров", "house": "84", "post": "163017", "x": 40.42936687, "y": 64.53908563 }, "geometry": { "type": "Point", "coordinates": [ 4500576.533062852919102, 9487998.706174701452255 ] } },
{ "type": "Feature", "properties": { "id": 65348, "name": "NORD FILM, киностудия", "city": "Архангельск", "street": "Северной Двины набережная", "house": "140", "post": "163045", "x": 40.54102992, "y": 64.56750476000001 }, "geometry": { "type": "Point", "coordinates": [ 4513006.806929271668196, 9495361.550873927772045 ] } },
{ "type": "Feature", "properties": { "id": 65518, "name": "Студия иностранных языков", "city": "Архангельск", "street": "Ломоносова проспект", "house": "32", "post": "163002", "x": 40.55450104, "y": 64.53131515 }, "geometry": { "type": "Point", "coordinates": [ 4514506.405148088932037, 9485986.861065752804279 ] } },
{ "type": "Feature", "properties": { "id": 65541, "name": "Приморская детская школа искусств", "city": "Катунино (Приморский район)", "street": "Стрельцова", "house": "5", "post": "163513", "x": 40.62448708, "y": 64.38979154 }, "geometry": { "type": "Point", "coordinates": [ 4522297.215483531355858, 9449445.011639147996902 ] } },
{ "type": "Feature", "properties": { "id": 65699, "name": "Speak it Up, репетиторский центр", "city": "Архангельск", "street": "Троицкий проспект", "house": "67", "post": "163000", "x": 40.51622744, "y": 64.54473722 }, "geometry": { "type": "Point", "coordinates": [ 4510245.807485271245241, 9489462.31215238571167 ] } },
{ "type": "Feature", "properties": { "id": 65771, "name": "Вологодская государственная молочно-хозяйственная академия им. Н.В. Верещагина, представительство в г. Архангельске", "city": "Архангельск", "street": "Ломоносова проспект", "house": "206", "post": "163000", "x": 40.52564045, "y": 64.54894199 }, "geometry": { "type": "Point", "coordinates": [ 4511293.658965297043324, 9490551.428416185081005 ] } },
{ "type": "Feature", "properties": { "id": 66894, "name": "Надежда, центр психолого-медико-социального сопровождения для детей", "city": "Архангельск", "street": "Попова", "house": "43", "post": "163000", "x": 40.53286249, "y": 64.54581124000001 }, "geometry": { "type": "Point", "coordinates": [ 4512097.612780593335629, 9489740.488011829555035 ] } },
{ "type": "Feature", "properties": { "id": 66983, "name": "ArcticCeramics, гончарная мастерская", "city": "Архангельск", "street": "Новгородский проспект", "house": "32", "post": "163002", "x": 40.55284461, "y": 64.53344983 }, "geometry": { "type": "Point", "coordinates": [ 4514322.012203957885504, 9486539.491277784109116 ] } },
{ "type": "Feature", "properties": { "id": 67347, "name": "Северодвинский техникум электромонтажа и связи", "city": "Северодвинск (Северодвинск городской округ)", "street": "Лесная", "house": "60", "post": "164501", "x": 39.82118328, "y": 64.55914362 }, "geometry": { "type": "Point", "coordinates": [ 4432873.845515232533216, 9493194.54488642513752 ] } },
{ "type": "Feature", "properties": { "id": 67775, "name": "Региональный центр дополнительного профессионального образования", "city": "Архангельск", "street": "Северной Двины набережная", "house": "111", "post": "163000", "x": 40.51567585, "y": 64.55167319 }, "geometry": { "type": "Point", "coordinates": [ 4510184.404767338186502, 9491258.951695248484612 ] } },
{ "type": "Feature", "properties": { "id": 68499, "name": "Архангельский техникум строительства и экономики, ГБПОУ", "city": "Архангельск", "street": "Чумбарова-Лучинского проспект", "house": "26", "post": "", "x": 40.53022989, "y": 64.5348486 }, "geometry": { "type": "Point", "coordinates": [ 4511804.553089126944542, 9486901.631088152527809 ] } },
{ "type": "Feature", "properties": { "id": 68661, "name": "Высший балл, образовательный центр", "city": "Архангельск", "street": "Гайдара", "house": "44/1", "post": "163071", "x": 40.54312629, "y": 64.55069924 }, "geometry": { "type": "Point", "coordinates": [ 4513240.173770185559988, 9491006.639706887304783 ] } },
{ "type": "Feature", "properties": { "id": 69425, "name": "Северный (Арктический) федеральный университет им. М.В. Ломоносова, ФГАОУ ВО", "city": "Архангельск", "street": "Кутузова", "house": "8", "post": "163012", "x": 40.58908502, "y": 64.59112174000001 }, "geometry": { "type": "Point", "coordinates": [ 4518356.276191294193268, 9501486.097014792263508 ] } },
{ "type": "Feature", "properties": { "id": 70363, "name": "Федеральная пассажирская компания, АО, Северный филиал", "city": "Архангельск", "street": "Дзержинского проспект", "house": "20", "post": "163051", "x": 40.56786315, "y": 64.55635651 }, "geometry": { "type": "Point", "coordinates": [ 4515993.868429217487574, 9492472.340870082378387 ] } },
{ "type": "Feature", "properties": { "id": 70518, "name": "Speak it Up, репетиторский центр", "city": "Архангельск", "street": "Попова", "house": "6", "post": "163000", "x": 40.5158944, "y": 64.54699543 }, "geometry": { "type": "Point", "coordinates": [ 4510208.733642052859068, 9490047.21107966452837 ] } },
{ "type": "Feature", "properties": { "id": 70627, "name": "Prima №1, вокальная школа", "city": "Архангельск", "street": "Новгородский проспект", "house": "32", "post": "163002", "x": 40.55284461, "y": 64.53344983 }, "geometry": { "type": "Point", "coordinates": [ 4514322.012203957885504, 9486539.491277784109116 ] } },
{ "type": "Feature", "properties": { "id": 71526, "name": "Техникум строительства и городского хозяйства", "city": "Архангельск", "street": "Воронина В.И.", "house": "30", "post": "163062", "x": 40.67912513, "y": 64.51175623 }, "geometry": { "type": "Point", "coordinates": [ 4528379.495387464761734, 9480925.4203727170825 ] } },
{ "type": "Feature", "properties": { "id": 72274, "name": "Образовательный центр им. святых Кирилла и Мефодия", "city": "Северодвинск (Северодвинск городской округ)", "street": "Морской проспект", "house": "30", "post": "164515", "x": 39.77377503, "y": 64.54786835 }, "geometry": { "type": "Point", "coordinates": [ 4427596.383265823125839, 9490273.319051153957844 ] } },
{ "type": "Feature", "properties": { "id": 72368, "name": "Заостровская средняя школа, МБОУ", "city": "Большое Анисимово (Приморский район)", "street": "60 лет Октября", "house": "13", "post": "163515", "x": 40.50800975, "y": 64.48140451 }, "geometry": { "type": "Point", "coordinates": [ 4509331.018418963998556, 9473078.199464239180088 ] } },
{ "type": "Feature", "properties": { "id": 72968, "name": "Архангельский педагогический колледж", "city": "Архангельск", "street": "Смольный Буян", "house": "5", "post": "163002", "x": 40.56710404, "y": 64.53163017 }, "geometry": { "type": "Point", "coordinates": [ 4515909.364690560847521, 9486068.411352075636387 ] } },
{ "type": "Feature", "properties": { "id": 73197, "name": "Лицей академии Яндекса", "city": "Архангельск", "street": "Северной Двины набережная", "house": "17 к1", "post": "163002", "x": 40.54981142, "y": 64.52965365 }, "geometry": { "type": "Point", "coordinates": [ 4513984.359037674963474, 9485556.758550710976124 ] } },
{ "type": "Feature", "properties": { "id": 73745, "name": "Высший балл, образовательный центр", "city": "Архангельск", "street": "Московский проспект", "house": "41/2", "post": "163065", "x": 40.61142329, "y": 64.53397125 }, "geometry": { "type": "Point", "coordinates": [ 4520842.961032900959253, 9486674.484095953404903 ] } },
{ "type": "Feature", "properties": { "id": 75285, "name": "Средняя школа №59 им. Героя Советского Союза М.Е. Родионова", "city": "Архангельск", "street": "Победы", "house": "128 к1", "post": "163026", "x": 40.50617788, "y": 64.68166683 }, "geometry": { "type": "Point", "coordinates": [ 4509127.095583375543356, 9525016.338690899312496 ] } },
{ "type": "Feature", "properties": { "id": 75858, "name": "Флорет, дизайн-студия флористики", "city": "Архангельск", "street": "Воскресенская", "house": "118", "post": "163051", "x": 40.56953099, "y": 64.54936717 }, "geometry": { "type": "Point", "coordinates": [ 4516179.531528744846582, 9490661.567559197545052 ] } },
{ "type": "Feature", "properties": { "id": 75947, "name": "Средняя общеобразовательная школа №13, г. Северодвинск", "city": "Северодвинск (Северодвинск городской округ)", "street": "Кирилкина", "house": "3", "post": "164502", "x": 39.79418544, "y": 64.54092567 }, "geometry": { "type": "Point", "coordinates": [ 4429868.459713909775019, 9488475.192506931722164 ] } },
{ "type": "Feature", "properties": { "id": 76215, "name": "Центр Комплексной Безопасности, ООО", "city": "Архангельск", "street": "Ленинградский проспект", "house": "3 к1", "post": "163002", "x": 40.56899779, "y": 64.52877816 }, "geometry": { "type": "Point", "coordinates": [ 4516120.175976242870092, 9485330.136251792311668 ] } },
{ "type": "Feature", "properties": { "id": 76397, "name": "Новодвинский индустриальный техникум, ГАПОУ", "city": "Новодвинск (Новодвинск городской округ)", "street": "Пролетарская", "house": "51", "post": "164903", "x": 40.81750423, "y": 64.40810319000001 }, "geometry": { "type": "Point", "coordinates": [ 4543783.786335900425911, 9454162.513853214681149 ] } },
{ "type": "Feature", "properties": { "id": 76406, "name": "Средняя общеобразовательная школа №13, г. Северодвинск", "city": "Северодвинск (Северодвинск городской округ)", "street": "Лебедева", "house": "10а", "post": "164502", "x": 39.796768, "y": 64.5400489 }, "geometry": { "type": "Point", "coordinates": [ 4430155.948978047817945, 9488248.145107179880142 ] } },
{ "type": "Feature", "properties": { "id": 77171, "name": "Архангельский педагогический колледж", "city": "Архангельск", "street": "Урицкого", "house": "68 к2", "post": "163060", "x": 40.57265583, "y": 64.53956944 }, "geometry": { "type": "Point", "coordinates": [ 4516527.387126348912716, 9488123.987756609916687 ] } },
{ "type": "Feature", "properties": { "id": 77756, "name": "Oк, студия английского языка", "city": "Архангельск", "street": "Никитова", "house": "9 к1", "post": "163062", "x": 40.67032108, "y": 64.51137829 }, "geometry": { "type": "Point", "coordinates": [ 4527399.433024551719427, 9480827.653080113232136 ] } },
{ "type": "Feature", "properties": { "id": 77773, "name": "Архангельский колледж телекоммуникаций им. Б.Л. Розинга, ФГБОУ ВО Санкт-Петербургский государственный университет телекоммуникаций им. профессора М.А. Бонч-Бруевича, филиал СПбГУТ им. профессора М.А. Бонч-Бруевича", "city": "Архангельск", "street": "Воронина В.И.", "house": "30 к3", "post": "163062", "x": 40.68214952, "y": 64.51366884 }, "geometry": { "type": "Point", "coordinates": [ 4528716.168942227959633, 9481420.204048193991184 ] } },
{ "type": "Feature", "properties": { "id": 78077, "name": "Региональный техникум экономики и права, ПОЧУ", "city": "Архангельск", "street": "Троицкий проспект", "house": "63", "post": "163000", "x": 40.51605615, "y": 64.54408271 }, "geometry": { "type": "Point", "coordinates": [ 4510226.739569690078497, 9489292.79658254981041 ] } },
{ "type": "Feature", "properties": { "id": 79135, "name": "Эрудит, репетиторский центр", "city": "Архангельск", "street": "Ломоносова проспект", "house": "32", "post": "163002", "x": 40.55450104, "y": 64.53131515 }, "geometry": { "type": "Point", "coordinates": [ 4514506.405148088932037, 9485986.861065752804279 ] } },
{ "type": "Feature", "properties": { "id": 79781, "name": "Карьера плюс, учебный центр", "city": "Архангельск", "street": "Троицкий проспект", "house": "67", "post": "163000", "x": 40.51622744, "y": 64.54473722 }, "geometry": { "type": "Point", "coordinates": [ 4510245.807485271245241, 9489462.31215238571167 ] } },
{ "type": "Feature", "properties": { "id": 80030, "name": "Учебно-методический центр, ЧОУ ДПО", "city": "Архангельск", "street": "Советских Космонавтов проспект", "house": "178", "post": "163072", "x": 40.54025094, "y": 64.55553302 }, "geometry": { "type": "Point", "coordinates": [ 4512920.091272342950106, 9492258.96988769620657 ] } },
{ "type": "Feature", "properties": { "id": 80092, "name": "Архангельский морской рыбопромышленный техникум", "city": "Архангельск", "street": "Ленинградский проспект", "house": "320", "post": "163030", "x": 40.67967744, "y": 64.50103118 }, "geometry": { "type": "Point", "coordinates": [ 4528440.978255428373814, 9478151.539455391466618 ] } },
{ "type": "Feature", "properties": { "id": 80253, "name": "Северный (Арктический) федеральный университет им. М.В. Ломоносова, ФГАОУ ВО", "city": "Архангельск", "street": "Северной Двины набережная", "house": "2 к2", "post": "163002", "x": 40.56191649, "y": 64.52673572 }, "geometry": { "type": "Point", "coordinates": [ 4515331.889266096055508, 9484801.47492253780365 ] } },
{ "type": "Feature", "properties": { "id": 80292, "name": "Архангельский региональный ресурсный центр, ГКУ", "city": "Архангельск", "street": "Новгородский проспект", "house": "160", "post": "163000", "x": 40.53009757, "y": 64.54551945 }, "geometry": { "type": "Point", "coordinates": [ 4511789.823294103145599, 9489664.91204671561718 ] } },
{ "type": "Feature", "properties": { "id": 80605, "name": "Северный НИИ лесного хозяйства, ФБУ Северный научно-исследовательский институт лесного хозяйства", "city": "Архангельск", "street": "Никитова", "house": "13", "post": "163062", "x": 40.67342107, "y": 64.51211699 }, "geometry": { "type": "Point", "coordinates": [ 4527744.522332813590765, 9481018.744724236428738 ] } },
{ "type": "Feature", "properties": { "id": 80948, "name": "Северодвинский техникум судостроения и судоремонта, ГБПОУ", "city": "Северодвинск (Северодвинск городской округ)", "street": "Машиностроителей проезд", "house": "6", "post": "164509", "x": 39.81300537, "y": 64.58834067 }, "geometry": { "type": "Point", "coordinates": [ 4431963.484738275408745, 9500764.611481890082359 ] } },
{ "type": "Feature", "properties": { "id": 82286, "name": "Средняя школа №23 им. А.С. Пушкина", "city": "Архангельск", "street": "Троицкий проспект", "house": "162", "post": "163001", "x": 40.5242063, "y": 64.55751392000001 }, "geometry": { "type": "Point", "coordinates": [ 4511134.010117575526237, 9492772.24333631247282 ] } },
{ "type": "Feature", "properties": { "id": 83592, "name": "Средняя общеобразовательная школа №22, МАОУ, г. Северодвинск", "city": "Северодвинск (Северодвинск городской округ)", "street": "Карла Маркса", "house": "33", "post": "164512", "x": 39.78439275, "y": 64.55618954000001 }, "geometry": { "type": "Point", "coordinates": [ 4428778.342449609190226, 9492429.077464394271374 ] } },
{ "type": "Feature", "properties": { "id": 83650, "name": "Гимназия №6", "city": "Архангельск", "street": "Троицкий проспект", "house": "69", "post": "163000", "x": 40.51687465, "y": 64.54575528 }, "geometry": { "type": "Point", "coordinates": [ 4510317.854572899639606, 9489725.993857495486736 ] } },
{ "type": "Feature", "properties": { "id": 83691, "name": "Институт океанологии им П.П. Ширшова Российской академии наук, ФГБУ, Северо-Западное отделение", "city": "Архангельск", "street": "Маймаксанское шоссе", "house": "1 к1", "post": "", "x": 40.52039207, "y": 64.59427189 }, "geometry": { "type": "Point", "coordinates": [ 4510709.411976207047701, 9502303.421035438776016 ] } },
{ "type": "Feature", "properties": { "id": 84201, "name": "Северный (Арктический) федеральный университет им. М.В. Ломоносова, ФГАОУ ВО", "city": "Архангельск", "street": "Северной Двины набережная", "house": "17", "post": "163002", "x": 40.55102764, "y": 64.52927752 }, "geometry": { "type": "Point", "coordinates": [ 4514119.748028770089149, 9485459.395673833787441 ] } },
{ "type": "Feature", "properties": { "id": 85501, "name": "Северный государственный медицинский университет, ФГБОУ ВО", "city": "Архангельск", "street": "Сибиряковцев проезд", "house": "2 к1", "post": "163045", "x": 40.54305151, "y": 64.56316881 }, "geometry": { "type": "Point", "coordinates": [ 4513231.849298670887947, 9494237.694133944809437 ] } },
{ "type": "Feature", "properties": { "id": 85714, "name": "Архангельский колледж культуры и искусства, ГБПОУ", "city": "Архангельск", "street": "Дзержинского проспект", "house": "23", "post": "163051", "x": 40.56450517, "y": 64.55647143 }, "geometry": { "type": "Point", "coordinates": [ 4515620.059805527329445, 9492502.117813758552074 ] } },
{ "type": "Feature", "properties": { "id": 86756, "name": "Архангельский колледж телекоммуникаций им. Б.Л. Розинга, ФГБОУ ВО Санкт-Петербургский государственный университет телекоммуникаций им. профессора М.А. Бонч-Бруевича, филиал СПбГУТ им. профессора М.А. Бонч-Бруевича", "city": "Архангельск", "street": "Папанина", "house": "24", "post": "163062", "x": 40.6752652, "y": 64.51617014 }, "geometry": { "type": "Point", "coordinates": [ 4527949.809945371001959, 9482067.331490710377693 ] } },
{ "type": "Feature", "properties": { "id": 86851, "name": "Северный (Арктический) федеральный университет им. М.В. Ломоносова, ФГАОУ ВО", "city": "Архангельск", "street": "Красноармейская", "house": "2", "post": "163002", "x": 40.56253079, "y": 64.53032667 }, "geometry": { "type": "Point", "coordinates": [ 4515400.272829283028841, 9485730.976036414504051 ] } },
{ "type": "Feature", "properties": { "id": 86953, "name": "Учебно-курсовой комбинат жилищно-коммунального хозяйства", "city": "Архангельск", "street": "Карла Либкнехта", "house": "19", "post": "163000", "x": 40.52460865, "y": 64.53878933 }, "geometry": { "type": "Point", "coordinates": [ 4511178.799514699727297, 9487921.981009915471077 ] } },
{ "type": "Feature", "properties": { "id": 87608, "name": "Ластольская средняя школа, МБОУ", "city": "Ластола (Приморский район)", "street": "Северодвинская", "house": "4", "post": "163524", "x": 40.28522085, "y": 64.59794469000001 }, "geometry": { "type": "Point", "coordinates": [ 4484530.27151658013463, 9503256.46898852288723 ] } },
{ "type": "Feature", "properties": { "id": 87649, "name": "Всероссийский НИИ охотничьего хозяйства и звероводства им. профессора Б.М. Житкова, ФГБНУ, Северный филиал", "city": "Архангельск", "street": "Советских Космонавтов проспект", "house": "38", "post": "163046", "x": 40.54543303, "y": 64.53716862 }, "geometry": { "type": "Point", "coordinates": [ 4513496.95889238640666, 9487502.322309069335461 ] } },
{ "type": "Feature", "properties": { "id": 87923, "name": "Архангельский политехнический техникум, ГАПОУ", "city": "Архангельск", "street": "Обводный канал проспект", "house": "2", "post": "163060", "x": 40.57025008, "y": 64.53617561 }, "geometry": { "type": "Point", "coordinates": [ 4516259.580261375755072, 9487245.209484659135342 ] } },
{ "type": "Feature", "properties": { "id": 88099, "name": "Средняя общеобразовательная школа №6, МОУ, г. Новодвинск", "city": "Новодвинск (Новодвинск городской округ)", "street": "Уборевича", "house": "43", "post": "164900", "x": 40.82044299, "y": 64.40931396000001 }, "geometry": { "type": "Point", "coordinates": [ 4544110.927602663636208, 9454474.546992421150208 ] } },
{ "type": "Feature", "properties": { "id": 88236, "name": "Средняя школа №30, МБОУ", "city": "Архангельск", "street": "Квартальная", "house": "15", "post": "163030", "x": 40.68724415, "y": 64.50485409 }, "geometry": { "type": "Point", "coordinates": [ 4529283.300559602677822, 9479140.155607007443905 ] } },
{ "type": "Feature", "properties": { "id": 88835, "name": "Архангельский техникум водных магистралей им. С.Н. Орешкова, ГАПОУ", "city": "Архангельск", "street": "Полярная", "house": "4", "post": "163013", "x": 40.5300754, "y": 64.58543096 }, "geometry": { "type": "Point", "coordinates": [ 4511787.355340991169214, 9500009.832121156156063 ] } },
{ "type": "Feature", "properties": { "id": 90188, "name": "Средняя общеобразовательная школа №54 с дошкольным отделением", "city": "Архангельск", "street": "Юнг Военно-Морского Флота", "house": "34 к1", "post": "163018", "x": 40.47094797, "y": 64.62023098 }, "geometry": { "type": "Point", "coordinates": [ 4505205.319941483438015, 9509042.256714597344398 ] } },
{ "type": "Feature", "properties": { "id": 90752, "name": "Архангельский политехнический техникум, ГАПОУ", "city": "Архангельск", "street": "Силикатчиков", "house": "11", "post": "163058", "x": 40.7701126, "y": 64.48310751 }, "geometry": { "type": "Point", "coordinates": [ 4538508.17421643435955, 9473518.267314940690994 ] } },
{ "type": "Feature", "properties": { "id": 91264, "name": "Средняя общеобразовательная школа №82", "city": "Архангельск", "street": "Речников", "house": "46", "post": "163038", "x": 40.65572038, "y": 64.45931805 }, "geometry": { "type": "Point", "coordinates": [ 4525774.090535320341587, 9467373.374695971608162 ] } },
{ "type": "Feature", "properties": { "id": 91510, "name": "Профессионал, учебно-спортивный клуб", "city": "Архангельск", "street": "Дачная", "house": "72 к1 ст1", "post": "163057", "x": 40.70252117, "y": 64.5234504 }, "geometry": { "type": "Point", "coordinates": [ 4530983.930646847933531, 9483951.191854745149612 ] } },
{ "type": "Feature", "properties": { "id": 91673, "name": "Oк, студия английского языка", "city": "Архангельск", "street": "Московский проспект", "house": "41/2", "post": "163065", "x": 40.61142329, "y": 64.53397125 }, "geometry": { "type": "Point", "coordinates": [ 4520842.961032900959253, 9486674.484095953404903 ] } },
{ "type": "Feature", "properties": { "id": 91692, "name": "Каскара, музыкальная студия", "city": "Северодвинск (Северодвинск городской округ)", "street": "Железнодорожная", "house": "45", "post": "164521", "x": 39.86219789, "y": 64.55807096 }, "geometry": { "type": "Point", "coordinates": [ 4437439.571015514433384, 9492916.585378885269165 ] } },
{ "type": "Feature", "properties": { "id": 92194, "name": "Средняя общеобразовательная школа №73", "city": "Архангельск", "street": "Стивидорская", "house": "11", "post": "163044", "x": 40.33296546, "y": 64.53730362 }, "geometry": { "type": "Point", "coordinates": [ 4489845.177189894020557, 9487537.277595356106758 ] } },
{ "type": "Feature", "properties": { "id": 92334, "name": "Северный техникум транспорта и технологий", "city": "Архангельск", "street": "Ильича", "house": "41 к3", "post": "163059", "x": 40.57829428, "y": 64.60120985 }, "geometry": { "type": "Point", "coordinates": [ 4517155.056509222835302, 9504103.847235500812531 ] } },
{ "type": "Feature", "properties": { "id": 92719, "name": "Северный (Арктический) федеральный университет им. М.В. Ломоносова, ФГАОУ ВО", "city": "Северодвинск (Северодвинск городской округ)", "street": "Капитана Воронина", "house": "6 ст2", "post": "164500", "x": 39.80284071, "y": 64.56288216 }, "geometry": { "type": "Point", "coordinates": [ 4430831.959962990134954, 9494163.402177102863789 ] } },
{ "type": "Feature", "properties": { "id": 93271, "name": "Северодвинский технический колледж, филиал САФУ им. М.В. Ломоносова", "city": "Северодвинск (Северодвинск городской округ)", "street": "Архангельское шоссе", "house": "36", "post": "164520", "x": 39.84283306, "y": 64.57693338 }, "geometry": { "type": "Point", "coordinates": [ 4435283.88800061494112, 9497806.019875392317772 ] } },
{ "type": "Feature", "properties": { "id": 93862, "name": "Северный (Арктический) федеральный университет им. М.В. Ломоносова, ФГАОУ ВО", "city": "Архангельск", "street": "Воронина В.И.", "house": "30 к2", "post": "163062", "x": 40.68458246, "y": 64.51297215 }, "geometry": { "type": "Point", "coordinates": [ 4528987.002584159374237, 9481239.969441130757332 ] } },
{ "type": "Feature", "properties": { "id": 94132, "name": "Филиппок, изостудия", "city": "Северодвинск (Северодвинск городской округ)", "street": "Торцева", "house": "28а", "post": "164501", "x": 39.82477946, "y": 64.56688994 }, "geometry": { "type": "Point", "coordinates": [ 4433274.170441627502441, 9495202.181696884334087 ] } },
{ "type": "Feature", "properties": { "id": 94281, "name": "Центр психолого-педагогической, медицинской и социальной помощи, МБОУ", "city": "Северодвинск (Северодвинск городской округ)", "street": "Советская", "house": "35Б", "post": "164520", "x": 39.83284632, "y": 64.56500245 }, "geometry": { "type": "Point", "coordinates": [ 4434172.169189125299454, 9494712.942707233130932 ] } },
{ "type": "Feature", "properties": { "id": 94434, "name": "Многопрофильный колледж, ГБПОУ Архангельский государственный многопрофильный колледж", "city": "Архангельск", "street": "Партизанская", "house": "47 к2", "post": "163059", "x": 40.58807301, "y": 64.60207094 }, "geometry": { "type": "Point", "coordinates": [ 4518243.619753420352936, 9504327.335294485092163 ] } },
{ "type": "Feature", "properties": { "id": 94915, "name": "Архангельский музыкальный колледж", "city": "Архангельск", "street": "Дзержинского проспект", "house": "23", "post": "163051", "x": 40.56450517, "y": 64.55647143 }, "geometry": { "type": "Point", "coordinates": [ 4515620.059805527329445, 9492502.117813758552074 ] } },
{ "type": "Feature", "properties": { "id": 95048, "name": "Двинской, учебный центр", "city": "Архангельск", "street": "Урицкого", "house": "17", "post": "163002", "x": 40.56095511, "y": 64.53220622000001 }, "geometry": { "type": "Point", "coordinates": [ 4515224.868934035301208, 9486217.537786640226841 ] } },
{ "type": "Feature", "properties": { "id": 95071, "name": "Северный (Арктический) федеральный университет им. М.В. Ломоносова, ФГАОУ ВО", "city": "Архангельск", "street": "Северной Двины набережная", "house": "14/1", "post": "163002", "x": 40.55167301, "y": 64.52837139 }, "geometry": { "type": "Point", "coordinates": [ 4514191.590288542211056, 9485224.845515012741089 ] } },
{ "type": "Feature", "properties": { "id": 95166, "name": "Высший балл, образовательный центр", "city": "Архангельск", "street": "Красных Маршалов", "house": "22", "post": "163059", "x": 40.59015954, "y": 64.59582552000001 }, "geometry": { "type": "Point", "coordinates": [ 4518475.891210544854403, 9502706.553858943283558 ] } },
{ "type": "Feature", "properties": { "id": 95607, "name": "Северный экономический лицей", "city": "Архангельск", "street": "Суворова", "house": "2", "post": "163001", "x": 40.52240715, "y": 64.56057549000001 }, "geometry": { "type": "Point", "coordinates": [ 4510933.729655716568232, 9493565.603904746472836 ] } },
{ "type": "Feature", "properties": { "id": 95637, "name": "Северный государственный медицинский университет, ФГБОУ ВО", "city": "Архангельск", "street": "Троицкий проспект", "house": "180", "post": "163001", "x": 40.52763963, "y": 64.56066733 }, "geometry": { "type": "Point", "coordinates": [ 4511516.20666490867734, 9493589.404258705675602 ] } },
{ "type": "Feature", "properties": { "id": 96293, "name": "Now & How, школа рока", "city": "Архангельск", "street": "Тимме", "house": "28", "post": "163051", "x": 40.55632753, "y": 64.55401639 }, "geometry": { "type": "Point", "coordinates": [ 4514709.729084827005863, 9491866.019221745431423 ] } },
{ "type": "Feature", "properties": { "id": 97913, "name": "Основная школа №12 им. Героя Российской Федерации генерал-полковника И.В. Коробова с дошкольным отделением", "city": "Талажский авиагородок", "street": "Авиационная", "house": "23", "post": "163053", "x": 40.70278738, "y": 64.59122618000001 }, "geometry": { "type": "Point", "coordinates": [ 4531013.565008491277695, 9501513.193040177226067 ] } },
{ "type": "Feature", "properties": { "id": 97991, "name": "Технологический колледж Императора Петра I", "city": "Архангельск", "street": "Воронина В.И.", "house": "34", "post": "163062", "x": 40.67347292, "y": 64.51450585000001 }, "geometry": { "type": "Point", "coordinates": [ 4527750.294248413294554, 9481636.745701223611832 ] } },
{ "type": "Feature", "properties": { "id": 99145, "name": "Архангельский медицинский колледж", "city": "Архангельск", "street": "Новгородский проспект", "house": "21", "post": "163002", "x": 40.5540076, "y": 64.53263786 }, "geometry": { "type": "Point", "coordinates": [ 4514451.475658558309078, 9486329.281771846115589 ] } },
{ "type": "Feature", "properties": { "id": 99452, "name": "ИНФО, учебный центр", "city": "Архангельск", "street": "Тимме", "house": "25", "post": "163071", "x": 40.55533431, "y": 64.5531102 }, "geometry": { "type": "Point", "coordinates": [ 4514599.164340179413557, 9491631.240705333650112 ] } },
{ "type": "Feature", "properties": { "id": 99755, "name": "Лико, студия массажа лица и тела", "city": "Архангельск", "street": "Попова", "house": "19", "post": "163000", "x": 40.52281583, "y": 64.54691871 }, "geometry": { "type": "Point", "coordinates": [ 4510979.223705220967531, 9490027.339039236307144 ] } },
{ "type": "Feature", "properties": { "id": 100263, "name": "Архангельский педагогический колледж", "city": "Архангельск", "street": "Урицкого", "house": "68", "post": "163060", "x": 40.57101261, "y": 64.53987705 }, "geometry": { "type": "Point", "coordinates": [ 4516344.46471268683672, 9488203.643874563276768 ] } },
{ "type": "Feature", "properties": { "id": 100427, "name": "Архангельский политехнический техникум, ГАПОУ", "city": "Архангельск", "street": "Силикатчиков", "house": "10", "post": "163058", "x": 40.769962, "y": 64.48261931 }, "geometry": { "type": "Point", "coordinates": [ 4538491.409501131623983, 9473392.110006682574749 ] } },
{ "type": "Feature", "properties": { "id": 100525, "name": "Эколого-биологический лицей им. академика Н.П. Лаверова", "city": "Архангельск", "street": "Ленинградский проспект", "house": "75", "post": "163009", "x": 40.59744775, "y": 64.52617707 }, "geometry": { "type": "Point", "coordinates": [ 4519287.211036544293165, 9484656.881896629929543 ] } },
{ "type": "Feature", "properties": { "id": 100979, "name": "Средняя общеобразовательная школа №19, МАОУ", "city": "Северодвинск (Северодвинск городской округ)", "street": "Октябрьская", "house": "31", "post": "164524", "x": 39.81579551, "y": 64.60400126 }, "geometry": { "type": "Point", "coordinates": [ 4432274.081702318042517, 9504828.357957199215889 ] } },
{ "type": "Feature", "properties": { "id": 101586, "name": "Палитра знаний, студия английского и французского языков", "city": "Архангельск", "street": "Новгородский проспект", "house": "32", "post": "163002", "x": 40.55284461, "y": 64.53344983 }, "geometry": { "type": "Point", "coordinates": [ 4514322.012203957885504, 9486539.491277784109116 ] } },
{ "type": "Feature", "properties": { "id": 101717, "name": "Васьковская средняя общеобразовательная школа с дошкольным отделением", "city": "Васьково (Приморский район)", "street": "Васьково", "house": "51", "post": "163512", "x": 40.45476627, "y": 64.40988986000001 }, "geometry": { "type": "Point", "coordinates": [ 4503403.981337312608957, 9454622.969678141176701 ] } },
{ "type": "Feature", "properties": { "id": 102040, "name": "Заостровская средняя школа, МБОУ", "city": "Рикасово (Приморский район)", "street": "Рикасово деревня", "house": "26", "post": "163515", "x": 40.51260331, "y": 64.48020645 }, "geometry": { "type": "Point", "coordinates": [ 4509842.371179096400738, 9472768.628278531134129 ] } },
{ "type": "Feature", "properties": { "id": 102722, "name": "Language. Today, студия иностранных языков", "city": "Архангельск", "street": "Северной Двины набережная", "house": "55", "post": "163069", "x": 40.52667582, "y": 64.5308654 }, "geometry": { "type": "Point", "coordinates": [ 4511408.915826484560966, 9485870.434402719140053 ] } },
{ "type": "Feature", "properties": { "id": 102823, "name": "Техникум строительства, дизайна и технологий, ГАПОУ", "city": "Северодвинск (Северодвинск городской округ)", "street": "Беломорский проспект", "house": "8", "post": "164520", "x": 39.83954434, "y": 64.5726188 }, "geometry": { "type": "Point", "coordinates": [ 4434917.789364848285913, 9496687.314581759274006 ] } },
{ "type": "Feature", "properties": { "id": 103162, "name": "JumpingClay, студия лепки", "city": "Архангельск", "street": "Троицкий проспект", "house": "106", "post": "163000", "x": 40.51835433, "y": 64.54522791 }, "geometry": { "type": "Point", "coordinates": [ 4510482.571797043085098, 9489589.401641167700291 ] } },
{ "type": "Feature", "properties": { "id": 103211, "name": "Техникум строительства, дизайна и технологий, ГАПОУ", "city": "Северодвинск (Северодвинск городской округ)", "street": "Железнодорожная", "house": "33", "post": "164500", "x": 39.85733716, "y": 64.56184987 }, "geometry": { "type": "Point", "coordinates": [ 4436898.477027032524347, 9493895.866896010935307 ] } },
{ "type": "Feature", "properties": { "id": 103230, "name": "Средняя общеобразовательная школа №12, МБОУ, г. Северодвинск", "city": "Северодвинск (Северодвинск городской округ)", "street": "Гагарина", "house": "15", "post": "164504", "x": 39.81676225, "y": 64.55891546 }, "geometry": { "type": "Point", "coordinates": [ 4432381.698706846684217, 9493135.420631103217602 ] } },
{ "type": "Feature", "properties": { "id": 103532, "name": "Северный (Арктический) федеральный университет им. М.В. Ломоносова, ФГАОУ ВО", "city": "Архангельск", "street": "Ломоносова проспект", "house": "4", "post": "163002", "x": 40.56493256, "y": 64.53070409 }, "geometry": { "type": "Point", "coordinates": [ 4515667.636642698198557, 9485828.676593385636806 ] } },
{ "type": "Feature", "properties": { "id": 104066, "name": "Северный (Арктический) федеральный университет им. М.В. Ломоносова, ФГАОУ ВО", "city": "Архангельск", "street": "Воронина В.И.", "house": "32 к2", "post": "163062", "x": 40.68077293, "y": 64.51442605 }, "geometry": { "type": "Point", "coordinates": [ 4528562.927644398063421, 9481616.100471824407578 ] } },
{ "type": "Feature", "properties": { "id": 104884, "name": "Палитра знаний, студия английского и французского языков", "city": "Северодвинск (Северодвинск городской округ)", "street": "Комсомольская", "house": "6а", "post": "164521", "x": 39.85466707, "y": 64.56069624 }, "geometry": { "type": "Point", "coordinates": [ 4436601.243967857211828, 9493596.896307446062565 ] } },
{ "type": "Feature", "properties": { "id": 104899, "name": "Студия Натальи Голубевой", "city": "Архангельск", "street": "Новгородский проспект", "house": "32", "post": "163002", "x": 40.55284461, "y": 64.53344983 }, "geometry": { "type": "Point", "coordinates": [ 4514322.012203957885504, 9486539.491277784109116 ] } },
{ "type": "Feature", "properties": { "id": 105083, "name": "Палитра знаний, студия английского и французского языков", "city": "Новодвинск (Новодвинск городской округ)", "street": "Советов", "house": "32", "post": "164903", "x": 40.80786589, "y": 64.40791141 }, "geometry": { "type": "Point", "coordinates": [ 4542710.851235009729862, 9454113.090605050325394 ] } },
{ "type": "Feature", "properties": { "id": 105949, "name": "Speak it Up, репетиторский центр", "city": "Архангельск", "street": "Урицкого", "house": "47", "post": "163060", "x": 40.56702931, "y": 64.53779532 }, "geometry": { "type": "Point", "coordinates": [ 4515901.045785017311573, 9487664.593978084623814 ] } },
{ "type": "Feature", "properties": { "id": 106300, "name": "Техникум судостроения и машиностроения, ГБПОУ", "city": "Северодвинск (Северодвинск городской округ)", "street": "Карла Маркса", "house": "34а", "post": "164512", "x": 39.78461622, "y": 64.557867 }, "geometry": { "type": "Point", "coordinates": [ 4428803.219016216695309, 9492863.734248474240303 ] } },
{ "type": "Feature", "properties": { "id": 106744, "name": "Колледж Менеджмента, ЧПОУ", "city": "Архангельск", "street": "Троицкий проспект", "house": "64", "post": "163069", "x": 40.51641782, "y": 64.53760947000001 }, "geometry": { "type": "Point", "coordinates": [ 4510267.000489931553602, 9487616.471378207206726 ] } },
{ "type": "Feature", "properties": { "id": 106842, "name": "Ластольская средняя школа, МБОУ", "city": "Пустошь (Приморский район)", "street": "Пустошь деревня", "house": "53", "post": "163527", "x": 40.43744394, "y": 64.58564364 }, "geometry": { "type": "Point", "coordinates": [ 4501475.668382354080677, 9500064.998623192310333 ] } },
{ "type": "Feature", "properties": { "id": 106943, "name": "Средняя школа №5 с дошкольным отделением", "city": "Архангельск", "street": "Воскресенская", "house": "103 к1", "post": "163051", "x": 40.56431035, "y": 64.551042 }, "geometry": { "type": "Point", "coordinates": [ 4515598.372542321681976, 9491095.434261150658131 ] } },
{ "type": "Feature", "properties": { "id": 107565, "name": "Эмигрируй просто, ООО", "city": "Архангельск", "street": "Троицкий проспект", "house": "65", "post": "163000", "x": 40.51539717, "y": 64.5445159 }, "geometry": { "type": "Point", "coordinates": [ 4510153.382251642644405, 9489404.990669369697571 ] } },
{ "type": "Feature", "properties": { "id": 108561, "name": "Средняя общеобразовательная школа №9, МАОУ, г. Северодвинск", "city": "Северодвинск (Северодвинск городской округ)", "street": "Торцева", "house": "36", "post": "164501", "x": 39.81985286, "y": 64.5658959 }, "geometry": { "type": "Point", "coordinates": [ 4432725.743838284164667, 9494944.521471679210663 ] } },
{ "type": "Feature", "properties": { "id": 108666, "name": "Северный (Арктический) федеральный университет им. М.В. Ломоносова, ФГАОУ ВО", "city": "Архангельск", "street": "Кутузова", "house": "6", "post": "163012", "x": 40.58899494, "y": 64.5905446 }, "geometry": { "type": "Point", "coordinates": [ 4518346.248531568795443, 9501336.365070253610611 ] } },
{ "type": "Feature", "properties": { "id": 109021, "name": "Бобровская средняя школа, МБОУ Бобровская СШ", "city": "Боброво (Приморский район)", "street": "Школьная", "house": "1", "post": "163505", "x": 41.16045568, "y": 64.35546394000001 }, "geometry": { "type": "Point", "coordinates": [ 4581960.967116717249155, 9440609.900896236300468 ] } },
{ "type": "Feature", "properties": { "id": 109973, "name": "Основная общеобразовательная школа №48 с дошкольным отделением", "city": "Архангельск", "street": "Приморская", "house": "3 к1", "post": "163019", "x": 40.47130288, "y": 64.58162192 }, "geometry": { "type": "Point", "coordinates": [ 4505244.828341953456402, 9499021.88829293102026 ] } },
{ "type": "Feature", "properties": { "id": 110112, "name": "Средняя школа №33", "city": "Архангельск", "street": "23 Гвардейской Дивизии", "house": "9", "post": "163051", "x": 40.57009441, "y": 64.54653838 }, "geometry": { "type": "Point", "coordinates": [ 4516242.251156244426966, 9489928.826659046113491 ] } },
{ "type": "Feature", "properties": { "id": 110191, "name": "Архангельский центр дистанционного образования, представительство ММУ, ММА, РГУТиС, ВГЛТУ, Оренбургской бизнес-школы в г. Архангельске", "city": "Архангельск", "street": "Троицкий проспект", "house": "39", "post": "163069", "x": 40.52035571, "y": 64.53521611 }, "geometry": { "type": "Point", "coordinates": [ 4510705.364399518817663, 9486996.782048866152763 ] } },
{ "type": "Feature", "properties": { "id": 111093, "name": "Bonjour, творческая студия", "city": "Архангельск", "street": "Тимме", "house": "4 к3", "post": "163060", "x": 40.57012534, "y": 64.54205696 }, "geometry": { "type": "Point", "coordinates": [ 4516245.694268096238375, 9488768.160910435020924 ] } },
{ "type": "Feature", "properties": { "id": 111272, "name": "Архангельский педагогический колледж", "city": "Архангельск", "street": "Смольный Буян", "house": "25 к1", "post": "163060", "x": 40.57299917, "y": 64.53878213 }, "geometry": { "type": "Point", "coordinates": [ 4516565.607560325413942, 9487920.116622090339661 ] } },
{ "type": "Feature", "properties": { "id": 111712, "name": "Бобровская средняя школа, МБОУ Бобровская СШ", "city": "Боброво (Приморский район)", "street": "Школьная", "house": "3", "post": "163505", "x": 41.16017298, "y": 64.35462035 }, "geometry": { "type": "Point", "coordinates": [ 4581929.497096668928862, 9440392.919671930372715 ] } },
{ "type": "Feature", "properties": { "id": 113053, "name": "Гимназия №24", "city": "Архангельск", "street": "Тимме", "house": "22 к3", "post": "163051", "x": 40.56217166, "y": 64.55314536 }, "geometry": { "type": "Point", "coordinates": [ 4515360.294660564512014, 9491640.349921680986881 ] } },
{ "type": "Feature", "properties": { "id": 113291, "name": "Отдел дополнительного образования, Архангельский колледж телекоммуникаций им. Б.Л. Розинга", "city": "Архангельск", "street": "Папанина", "house": "24", "post": "163062", "x": 40.6752652, "y": 64.51617014 }, "geometry": { "type": "Point", "coordinates": [ 4527949.809945371001959, 9482067.331490710377693 ] } },
{ "type": "Feature", "properties": { "id": 113476, "name": "Лицей академии Яндекса", "city": "Северодвинск (Северодвинск городской округ)", "street": "Капитана Воронина", "house": "6", "post": "164500", "x": 39.80389392, "y": 64.56305411 }, "geometry": { "type": "Point", "coordinates": [ 4430949.202763888984919, 9494207.96689048409462 ] } },
{ "type": "Feature", "properties": { "id": 113805, "name": "Архангельский торгово-экономический колледж, ГАПОУ", "city": "Архангельск", "street": "Дачная", "house": "57 к2", "post": "163015", "x": 40.66990721, "y": 64.52047204 }, "geometry": { "type": "Point", "coordinates": [ 4527353.36122689396143, 9483180.442408494651318 ] } },
{ "type": "Feature", "properties": { "id": 113832, "name": "Центр обучения инновациям", "city": "Архангельск", "street": "Чумбарова-Лучинского проспект", "house": "47", "post": "", "x": 40.52237508, "y": 64.53696906 }, "geometry": { "type": "Point", "coordinates": [ 4510930.159639649093151, 9487450.650944910943508 ] } },
{ "type": "Feature", "properties": { "id": 114097, "name": "Академия, частная школа", "city": "Архангельск", "street": "Федота Шубина", "house": "2", "post": "163001", "x": 40.52020706, "y": 64.5571575 }, "geometry": { "type": "Point", "coordinates": [ 4510688.816757220774889, 9492679.888157494366169 ] } },
{ "type": "Feature", "properties": { "id": 114543, "name": "Многопрофильный колледж, ГБПОУ Архангельский государственный многопрофильный колледж", "city": "Архангельск", "street": "Титова", "house": "26", "post": "163012", "x": 40.57957967, "y": 64.59374838 }, "geometry": { "type": "Point", "coordinates": [ 4517298.1454694904387, 9502167.586885698139668 ] } },
{ "type": "Feature", "properties": { "id": 115044, "name": "Северный (Арктический) федеральный университет им. М.В. Ломоносова, ФГАОУ ВО", "city": "Архангельск", "street": "Северной Двины набережная", "house": "17 к1", "post": "163002", "x": 40.54981142, "y": 64.52965365 }, "geometry": { "type": "Point", "coordinates": [ 4513984.359037674963474, 9485556.758550710976124 ] } },
{ "type": "Feature", "properties": { "id": 115075, "name": "Васьковская средняя общеобразовательная школа с дошкольным отделением", "city": "Васьково (Приморский район)", "street": "Васьково", "house": "78", "post": "163512", "x": 40.463559, "y": 64.4122402 }, "geometry": { "type": "Point", "coordinates": [ 4504382.78356359526515, 9455228.738695785403252 ] } },
{ "type": "Feature", "properties": { "id": 115957, "name": "Областная очно-заочная школа для одаренных детей", "city": "Архангельск", "street": "Северной Двины набережная", "house": "73", "post": "163069", "x": 40.51970548, "y": 64.53305105 }, "geometry": { "type": "Point", "coordinates": [ 4510632.981127023696899, 9486436.251033157110214 ] } },
{ "type": "Feature", "properties": { "id": 116925, "name": "Северный государственный медицинский университет, ФГБОУ ВО", "city": "Архангельск", "street": "Тимме", "house": "27", "post": "163071", "x": 40.55445802, "y": 64.55376864 }, "geometry": { "type": "Point", "coordinates": [ 4514501.616183590143919, 9491801.830608047544956 ] } },
{ "type": "Feature", "properties": { "id": 117073, "name": "Ok, студия английского языка", "city": "Северодвинск (Северодвинск городской округ)", "street": "Карла Маркса", "house": "21", "post": "164500", "x": 39.79600182, "y": 64.55838364 }, "geometry": { "type": "Point", "coordinates": [ 4430070.658210594207048, 9492997.609344705939293 ] } },
{ "type": "Feature", "properties": { "id": 117848, "name": "Экологический консалтинговый центр, ЧУ ДПО", "city": "Архангельск", "street": "Гайдара", "house": "4 к1", "post": "163000", "x": 40.51748121, "y": 64.55265609 }, "geometry": { "type": "Point", "coordinates": [ 4510385.376523237675428, 9491513.591412872076035 ] } },
{ "type": "Feature", "properties": { "id": 117893, "name": "Ok, студия английского языка", "city": "Северодвинск (Северодвинск городской округ)", "street": "Победы проспект", "house": "44а", "post": "164502", "x": 39.8085159, "y": 64.53969275 }, "geometry": { "type": "Point", "coordinates": [ 4431463.719223946332932, 9488155.918977074325085 ] } },
{ "type": "Feature", "properties": { "id": 118471, "name": "ВундерКит, детский развивающий центр, ООО Вундеркинд", "city": "Архангельск", "street": "Карла Маркса", "house": "29", "post": "163000", "x": 40.52541376, "y": 64.54448987000001 }, "geometry": { "type": "Point", "coordinates": [ 4511268.423949934542179, 9489398.24897663295269 ] } },
{ "type": "Feature", "properties": { "id": 120757, "name": "Средняя общеобразовательная школа №23", "city": "Северодвинск (Северодвинск городской округ)", "street": "Труда проспект", "house": "14а", "post": "164500", "x": 39.79040676, "y": 64.56082106 }, "geometry": { "type": "Point", "coordinates": [ 4429447.818980444222689, 9493629.243597775697708 ] } },
{ "type": "Feature", "properties": { "id": 121688, "name": "Средняя общеобразовательная школа №62 им. Героя Советского Союза В.Ф. Маргелова", "city": "Архангельск", "street": "Кедрова", "house": "34", "post": "163013", "x": 40.51966297, "y": 64.58666674 }, "geometry": { "type": "Point", "coordinates": [ 4510628.248935479670763, 9500330.383846499025822 ] } },
{ "type": "Feature", "properties": { "id": 121742, "name": "Средняя школа №37, МБОУ", "city": "Архангельск", "street": "Индустриальная", "house": "13", "post": "163012", "x": 40.58069315, "y": 64.59323769 }, "geometry": { "type": "Point", "coordinates": [ 4517422.097496099770069, 9502035.081634923815727 ] } },
{ "type": "Feature", "properties": { "id": 121767, "name": "Levels, языковая студия", "city": "Архангельск", "street": "Ленина площадь", "house": "4", "post": "163069", "x": 40.51817341, "y": 64.53862877 }, "geometry": { "type": "Point", "coordinates": [ 4510462.431874759495258, 9487880.405278198421001 ] } },
{ "type": "Feature", "properties": { "id": 121992, "name": "Funoteka, творческий центр", "city": "Архангельск", "street": "Обводный канал проспект", "house": "67", "post": "163046", "x": 40.53524905, "y": 64.54482218 }, "geometry": { "type": "Point", "coordinates": [ 4512363.283424537628889, 9489484.316763557493687 ] } },
{ "type": "Feature", "properties": { "id": 122358, "name": "Старт, центр подготовки охранников", "city": "Архангельск", "street": "Кедрова", "house": "34 ст2", "post": "163013", "x": 40.51952484, "y": 64.58590912 }, "geometry": { "type": "Point", "coordinates": [ 4510612.872374206781387, 9500133.861382178962231 ] } },
{ "type": "Feature", "properties": { "id": 122837, "name": "Фея рукоделия, творческая мастерская", "city": "Архангельск", "street": "Воскресенская", "house": "93 к1", "post": "163071", "x": 40.55187706, "y": 64.54741502 }, "geometry": { "type": "Point", "coordinates": [ 4514214.305030640214682, 9490155.894412845373154 ] } },
{ "type": "Feature", "properties": { "id": 123008, "name": "Средняя общеобразовательная школа №24 с дошкольным отделением", "city": "Северодвинск (Северодвинск городской округ)", "street": "Дзержинского", "house": "11а", "post": "164524", "x": 39.80509236, "y": 64.59978665 }, "geometry": { "type": "Point", "coordinates": [ 4431082.612494431436062, 9503734.484158121049404 ] } },
{ "type": "Feature", "properties": { "id": 123499, "name": "ALLA PRIMA, художественная студия", "city": "Архангельск", "street": "Троицкий проспект", "house": "37", "post": "163069", "x": 40.52156113, "y": 64.5344475 }, "geometry": { "type": "Point", "coordinates": [ 4510839.551140122115612, 9486797.784899443387985 ] } },
{ "type": "Feature", "properties": { "id": 123792, "name": "Северная театральная эстрадно-цирковая школа, ЧОУ ДО", "city": "Архангельск", "street": "Троицкий проспект", "house": "158", "post": "163001", "x": 40.52390284, "y": 64.55579424 }, "geometry": { "type": "Point", "coordinates": [ 4511100.229104898869991, 9492326.652789980173111 ] } },
{ "type": "Feature", "properties": { "id": 123906, "name": "My English Lab, центр изучения английского языка", "city": "Архангельск", "street": "Северной Двины набережная", "house": "30", "post": "163069", "x": 40.53937197, "y": 64.53007371 }, "geometry": { "type": "Point", "coordinates": [ 4512822.244779519736767, 9485665.494484096765518 ] } },
{ "type": "Feature", "properties": { "id": 124514, "name": "Кодология, школа программирования", "city": "Архангельск", "street": "Московский проспект", "house": "49", "post": "163065", "x": 40.61931265, "y": 64.53245917 }, "geometry": { "type": "Point", "coordinates": [ 4521721.200570784509182, 9486283.021867133677006 ] } },
{ "type": "Feature", "properties": { "id": 124768, "name": "Креатив, студия развития творческих способностей", "city": "Северодвинск (Северодвинск городской округ)", "street": "Победы проспект", "house": "58", "post": "164502", "x": 39.80509898, "y": 64.53753725 }, "geometry": { "type": "Point", "coordinates": [ 4431083.349429458379745, 9487597.77136354893446 ] } },
{ "type": "Feature", "properties": { "id": 125745, "name": "Hestia psychology, психологическая студия", "city": "Северодвинск (Северодвинск городской округ)", "street": "Карла Маркса", "house": "30", "post": "164500", "x": 39.79013414, "y": 64.55834537 }, "geometry": { "type": "Point", "coordinates": [ 4429417.471060864627361, 9492987.692487895488739 ] } },
{ "type": "Feature", "properties": { "id": 127004, "name": "Фотошкола", "city": "Архангельск", "street": "Троицкий проспект", "house": "158", "post": "163001", "x": 40.52390284, "y": 64.55579424 }, "geometry": { "type": "Point", "coordinates": [ 4511100.229104898869991, 9492326.652789980173111 ] } },
{ "type": "Feature", "properties": { "id": 127176, "name": "Школа современного образования, АНОО", "city": "Архангельск", "street": "Ломоносова проспект", "house": "32", "post": "163002", "x": 40.55450104, "y": 64.53131515 }, "geometry": { "type": "Point", "coordinates": [ 4514506.405148088932037, 9485986.861065752804279 ] } },
{ "type": "Feature", "properties": { "id": 127668, "name": "Средняя школа №34 им. А.И. Клепача", "city": "Архангельск", "street": "Клепача", "house": "3 к1", "post": "163039", "x": 40.61802852, "y": 64.43141157 }, "geometry": { "type": "Point", "coordinates": [ 4521578.251873072236776, 9460171.844433307647705 ] } },
{ "type": "Feature", "properties": { "id": 127872, "name": "Oк, студия английского языка", "city": "Архангельск", "street": "Советская", "house": "32", "post": "163020", "x": 40.51431417, "y": 64.58063907 }, "geometry": { "type": "Point", "coordinates": [ 4510032.823243118822575, 9498766.990694336593151 ] } },
{ "type": "Feature", "properties": { "id": 128208, "name": "Мастерская игры на барабанах и гитаре", "city": "Архангельск", "street": "Гагарина", "house": "46", "post": "163051", "x": 40.56064115, "y": 64.55527241 }, "geometry": { "type": "Point", "coordinates": [ 4515189.919066701084375, 9492191.44568457454443 ] } },
{ "type": "Feature", "properties": { "id": 128212, "name": "Новодвинский индустриальный техникум, ГАПОУ", "city": "Новодвинск (Новодвинск городской округ)", "street": "Двинская", "house": "45", "post": "164903", "x": 40.81508846, "y": 64.40784655 }, "geometry": { "type": "Point", "coordinates": [ 4543514.86404961720109, 9454096.37573965638876 ] } },
{ "type": "Feature", "properties": { "id": 128355, "name": "Средняя школа №28, МБОУ", "city": "Архангельск", "street": "Воронина В.И.", "house": "28 к1", "post": "", "x": 40.68631785, "y": 64.51037793 }, "geometry": { "type": "Point", "coordinates": [ 4529180.185315284878016, 9480568.881790153682232 ] } },
{ "type": "Feature", "properties": { "id": 128686, "name": "Архангельский финансово-промышленный колледж", "city": "Архангельск", "street": "Ломоносова проспект", "house": "291/1", "post": "163045", "x": 40.53696682, "y": 64.5623226 }, "geometry": { "type": "Point", "coordinates": [ 4512554.504706233739853, 9494018.381552763283253 ] } },
{ "type": "Feature", "properties": { "id": 128869, "name": "Центр профессиональной подготовки, Управление МВД России по Архангельской области", "city": "Архангельск", "street": "Вторая линия", "house": "9", "post": "163039", "x": 40.59506713, "y": 64.43282262 }, "geometry": { "type": "Point", "coordinates": [ 4519022.201630365103483, 9460535.803165040910244 ] } },
{ "type": "Feature", "properties": { "id": 128888, "name": "Северодвинский техникум судостроения и судоремонта, ГБПОУ", "city": "Северодвинск (Северодвинск городской округ)", "street": "Октябрьская", "house": "2", "post": "164509", "x": 39.82242014, "y": 64.59809275000001 }, "geometry": { "type": "Point", "coordinates": [ 4433011.532140612602234, 9503294.891496539115906 ] } },
{ "type": "Feature", "properties": { "id": 129203, "name": "Кодология, школа программирования", "city": "Архангельск", "street": "Ломоносова проспект", "house": "13", "post": "163002", "x": 40.56353963, "y": 64.52837663 }, "geometry": { "type": "Point", "coordinates": [ 4515512.576384380459785, 9485226.201857432723045 ] } },
{ "type": "Feature", "properties": { "id": 129481, "name": "Северный (Арктический) федеральный университет им. М.В. Ломоносова, ФГАОУ ВО", "city": "Архангельск", "street": "Новгородский проспект", "house": "34/4", "post": "163002", "x": 40.55494978, "y": 64.53588412000001 }, "geometry": { "type": "Point", "coordinates": [ 4514556.358656395226717, 9487169.737885177135468 ] } },
{ "type": "Feature", "properties": { "id": 129926, "name": "Easy-e, студия иностранных языков", "city": "Архангельск", "street": "Воронина В.И.", "house": "29 к2", "post": "163057", "x": 40.67658465, "y": 64.50728901 }, "geometry": { "type": "Point", "coordinates": [ 4528096.690447494387627, 9479769.905434787273407 ] } },
{ "type": "Feature", "properties": { "id": 130554, "name": "Арктический морской институт им. В.И. Воронина, ФГБОУ ВО Государственный университет морского и речного флота им. адмирала С.О. Макарова", "city": "Архангельск", "street": "Северной Двины набережная", "house": "111 к1", "post": "163000", "x": 40.51746179, "y": 64.55049458000001 }, "geometry": { "type": "Point", "coordinates": [ 4510383.214698728173971, 9490953.621527850627899 ] } },
{ "type": "Feature", "properties": { "id": 130855, "name": "Титан-Щит, группа охранных предприятий", "city": "Северодвинск (Северодвинск городской округ)", "street": "Морской проспект", "house": "35", "post": "164515", "x": 39.7839447, "y": 64.54657534 }, "geometry": { "type": "Point", "coordinates": [ 4428728.465751767158508, 9489938.399910286068916 ] } },
{ "type": "Feature", "properties": { "id": 130887, "name": "Easy-e, студия иностранных языков", "city": "Архангельск", "street": "Чумбарова-Лучинского проспект", "house": "41", "post": "", "x": 40.52339776, "y": 64.53661339 }, "geometry": { "type": "Point", "coordinates": [ 4511044.003856498748064, 9487358.559508308768272 ] } },
{ "type": "Feature", "properties": { "id": 131677, "name": "Уютный дом, арт-пространство", "city": "Архангельск", "street": "Северной Двины набережная", "house": "71", "post": "163000/3", "x": 40.52325814, "y": 64.53239785 }, "geometry": { "type": "Point", "coordinates": [ 4511028.461429186165333, 9486267.147196598351002 ] } },
{ "type": "Feature", "properties": { "id": 132860, "name": "Детская школа искусств №2 им. А.П. Загвоздиной, МБУ ДО", "city": "Архангельск", "street": "Кедрова", "house": "20", "post": "163013", "x": 40.50946296, "y": 64.58678361 }, "geometry": { "type": "Point", "coordinates": [ 4509492.78901618719101, 9500360.699769131839275 ] } },
{ "type": "Feature", "properties": { "id": 133736, "name": "Архангельский медицинский колледж", "city": "Архангельск", "street": "Сибиряковцев проезд", "house": "19", "post": "163045", "x": 40.55654172, "y": 64.56276794 }, "geometry": { "type": "Point", "coordinates": [ 4514733.572606563568115, 9494133.799648225307465 ] } },
{ "type": "Feature", "properties": { "id": 134614, "name": "Средняя школа №17", "city": "Архангельск", "street": "Воскресенская", "house": "106/2", "post": "163060", "x": 40.56087282, "y": 64.54507072 }, "geometry": { "type": "Point", "coordinates": [ 4515215.708453141152859, 9489548.688932783901691 ] } },
{ "type": "Feature", "properties": { "id": 134886, "name": "Архангельский колледж телекоммуникаций им. Б.Л. Розинга, ФГБОУ ВО Санкт-Петербургский государственный университет телекоммуникаций им. профессора М.А. Бонч-Бруевича, филиал СПбГУТ им. профессора М.А. Бонч-Бруевича", "city": "Архангельск", "street": "Папанина", "house": "26", "post": "163062", "x": 40.67720019, "y": 64.51673038 }, "geometry": { "type": "Point", "coordinates": [ 4528165.21204686537385, 9482212.282916128635406 ] } },
{ "type": "Feature", "properties": { "id": 135003, "name": "Средняя общеобразовательная школа №16 оборонно-спортивной направленности", "city": "Северодвинск (Северодвинск городской округ)", "street": "Тургенева", "house": "8", "post": "164504", "x": 39.81016109, "y": 64.5529896 }, "geometry": { "type": "Point", "coordinates": [ 4431646.860937010496855, 9491599.99587158113718 ] } },
{ "type": "Feature", "properties": { "id": 136329, "name": "Средняя школа №4 им. Н.М. Рубцова", "city": "Архангельск", "street": "Суфтина", "house": "20", "post": "163046", "x": 40.5474821, "y": 64.54381163 }, "geometry": { "type": "Point", "coordinates": [ 4513725.060321386903524, 9489222.589097626507282 ] } },
{ "type": "Feature", "properties": { "id": 136461, "name": "Средняя школа №14 с углублённым изучением отдельных предметов им. Я.И. Лейцингера, МБОУ", "city": "Архангельск", "street": "Троицкий проспект", "house": "130", "post": "163000", "x": 40.52183171, "y": 64.55186423000001 }, "geometry": { "type": "Point", "coordinates": [ 4510869.671967934817076, 9491308.443673297762871 ] } },
{ "type": "Feature", "properties": { "id": 136763, "name": "Средняя школа №77", "city": "Архангельск", "street": "Адмирала Макарова", "house": "33", "post": "163035", "x": 40.59767699, "y": 64.47470814 }, "geometry": { "type": "Point", "coordinates": [ 4519312.729916606098413, 9471348.073360912501812 ] } },
{ "type": "Feature", "properties": { "id": 138108, "name": "Перемена, образовательный центр", "city": "Архангельск", "street": "Ломоносова проспект", "house": "261", "post": "163001", "x": 40.52766765, "y": 64.55568922 }, "geometry": { "type": "Point", "coordinates": [ 4511519.325837038457394, 9492299.441708274185658 ] } },
{ "type": "Feature", "properties": { "id": 138356, "name": "Средняя общеобразовательная школа №5, г. Северодвинск", "city": "Северодвинск (Северодвинск городской округ)", "street": "Мира", "house": "23в", "post": "164524", "x": 39.81147862, "y": 64.60032917 }, "geometry": { "type": "Point", "coordinates": [ 4431793.527705706655979, 9503875.282087676227093 ] } },
{ "type": "Feature", "properties": { "id": 138383, "name": "Средняя школа №37, МБОУ", "city": "Архангельск", "street": "Кировская", "house": "21", "post": "163059", "x": 40.58674516, "y": 64.59368428000001 }, "geometry": { "type": "Point", "coordinates": [ 4518095.804167576134205, 9502150.955159470438957 ] } },
{ "type": "Feature", "properties": { "id": 138701, "name": "Основная школа № 69 имени А.А. Ефремова", "city": "Архангельск", "street": "Ленинская", "house": "1", "post": "163044", "x": 40.34546799, "y": 64.5297753 }, "geometry": { "type": "Point", "coordinates": [ 4491236.952463127672672, 9485588.248466402292252 ] } },
{ "type": "Feature", "properties": { "id": 139792, "name": "Учебно-методический и технический центр, ЧОУ ДПО", "city": "Архангельск", "street": "Тимме", "house": "30", "post": "163051", "x": 40.55571789, "y": 64.55457265 }, "geometry": { "type": "Point", "coordinates": [ 4514641.864270459860563, 9492010.140653692185879 ] } },
{ "type": "Feature", "properties": { "id": 139927, "name": "Открытая сменная школа, МБОУ ОСШ", "city": "Архангельск", "street": "Дрейера", "house": "9 к3", "post": "163035", "x": 40.57440866, "y": 64.50856135 }, "geometry": { "type": "Point", "coordinates": [ 4516722.511269401758909, 9480098.996436282992363 ] } },
{ "type": "Feature", "properties": { "id": 141196, "name": "Рапсодия, детская школа искусств №5", "city": "Архангельск", "street": "Партизанская", "house": "51", "post": "163059", "x": 40.59135611, "y": 64.60325868 }, "geometry": { "type": "Point", "coordinates": [ 4518609.092773642390966, 9504635.613991759717464 ] } },
{ "type": "Feature", "properties": { "id": 141563, "name": "ArhRockSchool, музыкальная студия", "city": "Архангельск", "street": "Тимме", "house": "28", "post": "163051", "x": 40.55632753, "y": 64.55401639 }, "geometry": { "type": "Point", "coordinates": [ 4514709.729084827005863, 9491866.019221745431423 ] } },
{ "type": "Feature", "properties": { "id": 141647, "name": "Техникум строительства, дизайна и технологий, ГАПОУ", "city": "Северодвинск (Северодвинск городской округ)", "street": "Свободы", "house": "3", "post": "164509", "x": 39.80807347, "y": 64.59125697 }, "geometry": { "type": "Point", "coordinates": [ 4431414.468141637742519, 9501521.181250594556332 ] } },
{ "type": "Feature", "properties": { "id": 142612, "name": "Средняя школа №77", "city": "Архангельск", "street": "Дежнёвцев", "house": "12", "post": "163035", "x": 40.59387082, "y": 64.49769457 }, "geometry": { "type": "Point", "coordinates": [ 4518889.029010336846113, 9477288.794986382126808 ] } },
{ "type": "Feature", "properties": { "id": 142720, "name": "Архангельский морской кадетский корпус, ГБОУ", "city": "Архангельск", "street": "Карла Маркса", "house": "51", "post": "163046", "x": 40.53407361, "y": 64.5435162 }, "geometry": { "type": "Point", "coordinates": [ 4512232.434042282402515, 9489146.075958073139191 ] } },
{ "type": "Feature", "properties": { "id": 144314, "name": "Ястреб, ООО, частная охранная организация", "city": "Архангельск", "street": "Троицкий проспект", "house": "65", "post": "163000", "x": 40.51539717, "y": 64.5445159 }, "geometry": { "type": "Point", "coordinates": [ 4510153.382251642644405, 9489404.990669369697571 ] } },
{ "type": "Feature", "properties": { "id": 144373, "name": "Морская кадетская школа, МАОУ", "city": "Северодвинск (Северодвинск городской округ)", "street": "Комсомольская", "house": "7", "post": "164521", "x": 39.85217605, "y": 64.55916911 }, "geometry": { "type": "Point", "coordinates": [ 4436323.944889899343252, 9493201.150269843637943 ] } },
{ "type": "Feature", "properties": { "id": 144523, "name": "Boreal, студия йоги и танца", "city": "Архангельск", "street": "Северодвинская", "house": "31", "post": "163002", "x": 40.55148754, "y": 64.53447233 }, "geometry": { "type": "Point", "coordinates": [ 4514170.943862583488226, 9486804.213428691029549 ] } },
{ "type": "Feature", "properties": { "id": 144776, "name": "Вокальная студия Владимира Скицкого", "city": "Северодвинск (Северодвинск городской округ)", "street": "Ленина проспект", "house": "47", "post": "164507", "x": 39.8347524, "y": 64.55356966 }, "geometry": { "type": "Point", "coordinates": [ 4434384.353044144809246, 9491750.2780522108078 ] } },
{ "type": "Feature", "properties": { "id": 144912, "name": "Ягринская гимназия, МАОУ", "city": "Северодвинск (Северодвинск городской округ)", "street": "Приморский бульвар", "house": "50", "post": "164524", "x": 39.80937924, "y": 64.60570148 }, "geometry": { "type": "Point", "coordinates": [ 4431559.825793121010065, 9505269.686649553477764 ] } },
{ "type": "Feature", "properties": { "id": 145010, "name": "Профессионал, учебный центр повышения квалификации специалистов строительной отрасли", "city": "Архангельск", "street": "Чумбарова-Лучинского проспект", "house": "10/1", "post": "", "x": 40.53493715, "y": 64.53363555 }, "geometry": { "type": "Point", "coordinates": [ 4512328.562875360250473, 9486587.572885662317276 ] } },
{ "type": "Feature", "properties": { "id": 146857, "name": "Гуманитарная гимназия №8", "city": "Северодвинск (Северодвинск городской округ)", "street": "Торцева", "house": "12", "post": "164520", "x": 39.84123411, "y": 64.56931584 }, "geometry": { "type": "Point", "coordinates": [ 4435105.893700819462538, 9495831.026784189045429 ] } },
{ "type": "Feature", "properties": { "id": 147185, "name": "Mona art studio, центр творческих мастер-классов", "city": "Архангельск", "street": "Володарского", "house": "19", "post": "163069", "x": 40.52966932, "y": 64.53434319 }, "geometry": { "type": "Point", "coordinates": [ 4511742.150722164660692, 9486770.778926812112331 ] } },
{ "type": "Feature", "properties": { "id": 147250, "name": "Федеральный исследовательский центр комплексного изучения Арктики им. академика Н.П. Лаверова РАН, ФГБНУ", "city": "Архангельск", "street": "Северной Двины набережная", "house": "23", "post": "163069", "x": 40.54378963, "y": 64.52915392 }, "geometry": { "type": "Point", "coordinates": [ 4513314.016441218554974, 9485427.401572287082672 ] } },
{ "type": "Feature", "properties": { "id": 148906, "name": "Отдел дополнительного образования, Архангельский медицинский колледж", "city": "Архангельск", "street": "Сибиряковцев проезд", "house": "19", "post": "163045", "x": 40.55654172, "y": 64.56276794 }, "geometry": { "type": "Point", "coordinates": [ 4514733.572606563568115, 9494133.799648225307465 ] } },
{ "type": "Feature", "properties": { "id": 148914, "name": "Центр дополнительного образования детей", "city": "Архангельск", "street": "Ломоносова проспект", "house": "209", "post": "163000", "x": 40.52312322, "y": 64.54732517 }, "geometry": { "type": "Point", "coordinates": [ 4511013.442203491926193, 9490132.621082879602909 ] } },
{ "type": "Feature", "properties": { "id": 149419, "name": "Северный (Арктический) федеральный университет им. М.В. Ломоносова, ФГАОУ ВО", "city": "Северодвинск (Северодвинск городской округ)", "street": "Карла Маркса", "house": "36", "post": "164512", "x": 39.78106551, "y": 64.55753021 }, "geometry": { "type": "Point", "coordinates": [ 4428407.955787070095539, 9492776.464412972331047 ] } },
{ "type": "Feature", "properties": { "id": 150331, "name": "Средняя школа №95 им. П.Г. Лушева с дошкольным отделением", "city": "Архангельск", "street": "Сплавная", "house": "4 к1", "post": "163011", "x": 40.63079392, "y": 64.50436779 }, "geometry": { "type": "Point", "coordinates": [ 4522999.289700843393803, 9479014.389269791543484 ] } },
{ "type": "Feature", "properties": { "id": 150335, "name": "Санаторная школа-интернат №2", "city": "Архангельск", "street": "Лочехина", "house": "13", "post": "163044", "x": 40.32559595, "y": 64.53691649 }, "geometry": { "type": "Point", "coordinates": [ 4489024.807089302688837, 9487437.03924386203289 ] } },
{ "type": "Feature", "properties": { "id": 150926, "name": "Средняя общеобразовательная школа №25", "city": "Северодвинск (Северодвинск городской округ)", "street": "Морской проспект", "house": "12а", "post": "164514", "x": 39.77262629, "y": 64.5536669 }, "geometry": { "type": "Point", "coordinates": [ 4427468.506113983690739, 9491775.471343867480755 ] } },
{ "type": "Feature", "properties": { "id": 151863, "name": "Средняя школа №8", "city": "Архангельск", "street": "Обводный канал проспект", "house": "30", "post": "163046", "x": 40.54847965, "y": 64.53968979 }, "geometry": { "type": "Point", "coordinates": [ 4513836.107079427689314, 9488155.152481094002724 ] } },
{ "type": "Feature", "properties": { "id": 151910, "name": "Северный (Арктический) федеральный университет им. М.В. Ломоносова, ФГАОУ ВО", "city": "Архангельск", "street": "Новгородский проспект", "house": "34/3", "post": "163046", "x": 40.5523383, "y": 64.53558252000001 }, "geometry": { "type": "Point", "coordinates": [ 4514265.650032568722963, 9487091.649487562477589 ] } },
{ "type": "Feature", "properties": { "id": 152079, "name": "Средняя школа №34 им. А.И. Клепача", "city": "Архангельск", "street": "Клепача", "house": "3 к2", "post": "163039", "x": 40.61630148, "y": 64.4310492 }, "geometry": { "type": "Point", "coordinates": [ 4521385.998659688979387, 9460078.379666268825531 ] } },
{ "type": "Feature", "properties": { "id": 152381, "name": "Архангельская санаторная школа-интернат №1, ГБОУ", "city": "Архангельск", "street": "Карла Либкнехта", "house": "15", "post": "163000", "x": 40.52246949, "y": 64.53850189000001 }, "geometry": { "type": "Point", "coordinates": [ 4510940.66931277513504, 9487847.550887003540993 ] } },
{ "type": "Feature", "properties": { "id": 152529, "name": "Инженер, ООО, центр обучения", "city": "Северодвинск (Северодвинск городской округ)", "street": "Первомайская", "house": "20 ст5", "post": "164520", "x": 39.82879303, "y": 64.57041582 }, "geometry": { "type": "Point", "coordinates": [ 4433720.959010288119316, 9496116.183542758226395 ] } },
{ "type": "Feature", "properties": { "id": 153742, "name": "Полиглот, лингвистический центр, САФУ им. М.В. Ломоносова", "city": "Архангельск", "street": "Смольный Буян", "house": "7", "post": "163002", "x": 40.56652961, "y": 64.5327443 }, "geometry": { "type": "Point", "coordinates": [ 4515845.41943546757102, 9486356.83748272061348 ] } },
{ "type": "Feature", "properties": { "id": 153961, "name": "Inka-центр, кадровый центр", "city": "Архангельск", "street": "Троицкий проспект", "house": "65", "post": "163000", "x": 40.51539717, "y": 64.5445159 }, "geometry": { "type": "Point", "coordinates": [ 4510153.382251642644405, 9489404.990669369697571 ] } },
{ "type": "Feature", "properties": { "id": 154095, "name": "Средняя школа №93 им. 77-ой Гвардейской Московско-Черниговской стрелковой дивизии с дошкольным отделением", "city": "Архангельск", "street": "Вторая линия", "house": "10 к1", "post": "163039", "x": 40.59335997, "y": 64.43253049 }, "geometry": { "type": "Point", "coordinates": [ 4518832.16144846752286, 9460460.451168783009052 ] } },
{ "type": "Feature", "properties": { "id": 154168, "name": "Oк, студия английского языка", "city": "Архангельск", "street": "Чумбарова-Лучинского проспект", "house": "7 к1", "post": "", "x": 40.53398367, "y": 64.53250506000001 }, "geometry": { "type": "Point", "coordinates": [ 4512222.421967275440693, 9486294.902005158364773 ] } },
{ "type": "Feature", "properties": { "id": 154543, "name": "Северный (Арктический) федеральный университет им. М.В. Ломоносова, ФГАОУ ВО", "city": "Архангельск", "street": "Урицкого", "house": "68 к3", "post": "163060", "x": 40.57454813, "y": 64.53944863 }, "geometry": { "type": "Point", "coordinates": [ 4516738.036998774856329, 9488092.704053081572056 ] } },
{ "type": "Feature", "properties": { "id": 154709, "name": "Средняя общеобразовательная школа №55 им. А.И. Анощенкова", "city": "Архангельск", "street": "Пионерская", "house": "82 к1", "post": "163025", "x": 40.54355448, "y": 64.65953566 }, "geometry": { "type": "Point", "coordinates": [ 4513287.839662954211235, 9519257.793139025568962 ] } },
{ "type": "Feature", "properties": { "id": 154898, "name": "Ok, студия английского языка", "city": "Северодвинск (Северодвинск городской округ)", "street": "Морской проспект", "house": "56", "post": "164523", "x": 39.77678359, "y": 64.53919553 }, "geometry": { "type": "Point", "coordinates": [ 4427931.29463304951787, 9488027.164353519678116 ] } },
{ "type": "Feature", "properties": { "id": 155562, "name": "Os, студия", "city": "Архангельск", "street": "Котласская", "house": "11", "post": "163046", "x": 40.5494527, "y": 64.54062073 }, "geometry": { "type": "Point", "coordinates": [ 4513944.426509939134121, 9488396.224750563502312 ] } },
{ "type": "Feature", "properties": { "id": 155878, "name": "Средняя общеобразовательная школа №82", "city": "Архангельск", "street": "100 Дивизии", "house": "12", "post": "163038", "x": 40.63195139, "y": 64.45589794 }, "geometry": { "type": "Point", "coordinates": [ 4523128.138671852648258, 9466490.388522878289223 ] } },
{ "type": "Feature", "properties": { "id": 155974, "name": "Северный (Арктический) федеральный университет им. М.В. Ломоносова, ФГАОУ ВО", "city": "Архангельск", "street": "Ломоносова проспект", "house": "2", "post": "163002", "x": 40.56613947, "y": 64.53028127 }, "geometry": { "type": "Point", "coordinates": [ 4515801.9892493262887, 9485719.223689079284668 ] } },
{ "type": "Feature", "properties": { "id": 156378, "name": "Life way, студия йоги и творчества", "city": "Архангельск", "street": "Попова", "house": "14", "post": "163000", "x": 40.51948503, "y": 64.54667538 }, "geometry": { "type": "Point", "coordinates": [ 4510608.440745282918215, 9489964.31198987364769 ] } },
{ "type": "Feature", "properties": { "id": 156435, "name": "Эколь, академия красоты", "city": "Архангельск", "street": "Троицкий проспект", "house": "67", "post": "163000", "x": 40.51622744, "y": 64.54473722 }, "geometry": { "type": "Point", "coordinates": [ 4510245.807485271245241, 9489462.31215238571167 ] } },
{ "type": "Feature", "properties": { "id": 158100, "name": "Средняя школа №2 им. В.Ф. Филиппова", "city": "Архангельск", "street": "Советских Космонавтов проспект", "house": "188 к1", "post": "163072", "x": 40.54676098, "y": 64.55752141000001 }, "geometry": { "type": "Point", "coordinates": [ 4513644.785610187798738, 9492774.184150241315365 ] } },
{ "type": "Feature", "properties": { "id": 158277, "name": "Детская школа искусств №2 им. А.П. Загвоздиной, МБУ ДО", "city": "Архангельск", "street": "Лесотехническая", "house": "1", "post": "163025", "x": 40.54334462, "y": 64.65825304000001 }, "geometry": { "type": "Point", "coordinates": [ 4513264.478154614567757, 9518924.198557555675507 ] } },
{ "type": "Feature", "properties": { "id": 158472, "name": "Северодвинский техникум социальной инфраструктуры", "city": "Северодвинск (Северодвинск городской округ)", "street": "Советских Космонавтов", "house": "18", "post": "164515", "x": 39.78440065, "y": 64.54400082 }, "geometry": { "type": "Point", "coordinates": [ 4428779.221873592585325, 9489271.587674178183079 ] } },
{ "type": "Feature", "properties": { "id": 159225, "name": "English first, НОУ Английская школа", "city": "Архангельск", "street": "Троицкий проспект", "house": "63", "post": "163000", "x": 40.51605615, "y": 64.54408271 }, "geometry": { "type": "Point", "coordinates": [ 4510226.739569690078497, 9489292.79658254981041 ] } },
{ "type": "Feature", "properties": { "id": 159691, "name": "Всероссийский научно-исследовательский институт рыбного хозяйства и океанографии, ФГБНУ", "city": "Архангельск", "street": "Урицкого", "house": "17", "post": "163002", "x": 40.56095511, "y": 64.53220622000001 }, "geometry": { "type": "Point", "coordinates": [ 4515224.868934035301208, 9486217.537786640226841 ] } },
{ "type": "Feature", "properties": { "id": 160298, "name": "Северная Академия, ЧОУ ДПО", "city": "Архангельск", "street": "Попова", "house": "17", "post": "163000", "x": 40.52160721, "y": 64.54701403 }, "geometry": { "type": "Point", "coordinates": [ 4510844.680742256343365, 9490052.028866402804852 ] } },
{ "type": "Feature", "properties": { "id": 160572, "name": "Фа-диез, школа игры на фортепиано", "city": "Архангельск", "street": "Троицкий проспект", "house": "119", "post": "163001", "x": 40.52158036, "y": 64.55503431 }, "geometry": { "type": "Point", "coordinates": [ 4510841.691813923418522, 9492129.754399873316288 ] } },
{ "type": "Feature", "properties": { "id": 160715, "name": "Средняя школа №93 им. 77-ой Гвардейской Московско-Черниговской стрелковой дивизии с дошкольным отделением", "city": "Турдеевск", "street": "Центральная", "house": "22", "post": "163048", "x": 40.78114412, "y": 64.45672018 }, "geometry": { "type": "Point", "coordinates": [ 4539736.197405517101288, 9466702.660089962184429 ] } },
{ "type": "Feature", "properties": { "id": 160775, "name": "Ok, студия английского языка", "city": "Северодвинск (Северодвинск городской округ)", "street": "Октябрьская", "house": "37", "post": "164524", "x": 39.81544593, "y": 64.6057618 }, "geometry": { "type": "Point", "coordinates": [ 4432235.166634727269411, 9505285.344510450959206 ] } },
{ "type": "Feature", "properties": { "id": 161054, "name": "Средняя школа №26 им. В.Д. Никитова", "city": "Архангельск", "street": "Воронина В.И.", "house": "37 к3", "post": "163062", "x": 40.67450864, "y": 64.51029233 }, "geometry": { "type": "Point", "coordinates": [ 4527865.5900714173913, 9480546.739379324018955 ] } },
{ "type": "Feature", "properties": { "id": 161485, "name": "Рубин-север", "city": "Северодвинск (Северодвинск городской округ)", "street": "Архангельское шоссе", "house": "58", "post": "", "x": 39.81743621, "y": 64.57274894 }, "geometry": { "type": "Point", "coordinates": [ 4432456.723590862005949, 9496721.055322229862213 ] } },
{ "type": "Feature", "properties": { "id": 161646, "name": "Основная школа №12 им. Героя Российской Федерации генерал-полковника И.В. Коробова с дошкольным отделением", "city": "Талажский авиагородок", "street": "Авиационная", "house": "24", "post": "163053", "x": 40.70184236, "y": 64.59199508 }, "geometry": { "type": "Point", "coordinates": [ 4530908.365863297134638, 9501712.68047983199358 ] } },
{ "type": "Feature", "properties": { "id": 161742, "name": "Звучи, школа голоса", "city": "Архангельск", "street": "Ломоносова проспект", "house": "269", "post": "163001", "x": 40.52793793, "y": 64.55734516 }, "geometry": { "type": "Point", "coordinates": [ 4511549.413269009441137, 9492728.514270521700382 ] } },
{ "type": "Feature", "properties": { "id": 162436, "name": "Соломбальская специальная коррекционная общеобразовательная школа-интернат", "city": "Архангельск", "street": "Георгия Седова набережная", "house": "15", "post": "163020", "x": 40.50187421, "y": 64.58020426 }, "geometry": { "type": "Point", "coordinates": [ 4508648.013230431824923, 9498654.227668702602386 ] } },
{ "type": "Feature", "properties": { "id": 162454, "name": "Hestia psychology, психологическая студия", "city": "Архангельск", "street": "Гайдара", "house": "4 к1", "post": "163000", "x": 40.51748121, "y": 64.55265609 }, "geometry": { "type": "Point", "coordinates": [ 4510385.376523237675428, 9491513.591412872076035 ] } },
{ "type": "Feature", "properties": { "id": 162702, "name": "Новодвинский индустриальный техникум, ГАПОУ", "city": "Новодвинск (Новодвинск городской округ)", "street": "Советов", "house": "24", "post": "164900", "x": 40.81984535, "y": 64.41187173 }, "geometry": { "type": "Point", "coordinates": [ 4544044.398622181266546, 9455133.767001740634441 ] } },
{ "type": "Feature", "properties": { "id": 162847, "name": "Архангельский авиационный учебный центр, ФГАУ", "city": "Талажский авиагородок", "street": "Аэропорт Архангельск", "house": "5", "post": "163053", "x": 40.71222268, "y": 64.59354257 }, "geometry": { "type": "Point", "coordinates": [ 4532063.897799964994192, 9502114.186469748616219 ] } },
{ "type": "Feature", "properties": { "id": 162910, "name": "Северный (Арктический) федеральный университет им. М.В. Ломоносова, ФГАОУ ВО", "city": "Северодвинск (Северодвинск городской округ)", "street": "Капитана Воронина", "house": "6", "post": "164500", "x": 39.80389392, "y": 64.56305411 }, "geometry": { "type": "Point", "coordinates": [ 4430949.202763888984919, 9494207.96689048409462 ] } },
{ "type": "Feature", "properties": { "id": 163646, "name": "Помор, автономная некоммерческая организация дополнительного профессионального образования", "city": "Архангельск", "street": "Северодвинская", "house": "36", "post": "163002", "x": 40.5515845, "y": 64.53312572 }, "geometry": { "type": "Point", "coordinates": [ 4514181.7374004162848, 9486455.582251578569412 ] } },
{ "type": "Feature", "properties": { "id": 163685, "name": "Северный (Арктический) федеральный университет им. М.В. Ломоносова, ФГАОУ ВО", "city": "Архангельск", "street": "Кутузова", "house": "4", "post": "163012", "x": 40.58925992, "y": 64.59013749 }, "geometry": { "type": "Point", "coordinates": [ 4518375.745970238000154, 9501230.747248291969299 ] } },
{ "type": "Feature", "properties": { "id": 164199, "name": "Средняя общеобразовательная школа №2, МАОУ, г. Северодвинск", "city": "Северодвинск (Северодвинск городской округ)", "street": "Трухинова", "house": "10", "post": "164522", "x": 39.75967495, "y": 64.55049768000001 }, "geometry": { "type": "Point", "coordinates": [ 4426026.769540078938007, 9490954.42459511756897 ] } },
{ "type": "Feature", "properties": { "id": 164673, "name": "Репетитор, фирма по профессиональной помощи студентам", "city": "Архангельск", "street": "Урицкого", "house": "1", "post": "163002", "x": 40.55526881, "y": 64.52786963 }, "geometry": { "type": "Point", "coordinates": [ 4514591.872913539409637, 9485094.969170138239861 ] } },
{ "type": "Feature", "properties": { "id": 164916, "name": "Детская школа искусств №2 им. А.П. Загвоздиной, МБУ ДО", "city": "Архангельск", "street": "Кедрова", "house": "17", "post": "163013", "x": 40.50790661, "y": 64.58710154000001 }, "geometry": { "type": "Point", "coordinates": [ 4509319.536926694214344, 9500443.171047128736973 ] } },
{ "type": "Feature", "properties": { "id": 165311, "name": "Средняя общеобразовательная школа №52", "city": "Архангельск", "street": "Маяковского", "house": "41", "post": "163020", "x": 40.51813936, "y": 64.58097117 }, "geometry": { "type": "Point", "coordinates": [ 4510458.641446106135845, 9498853.118263080716133 ] } },
{ "type": "Feature", "properties": { "id": 165356, "name": "Гармония, детская школа искусств №42", "city": "Архангельск", "street": "Попова", "house": "1", "post": "163000", "x": 40.51428627, "y": 64.54783427 }, "geometry": { "type": "Point", "coordinates": [ 4510029.71742932498455, 9490264.491348534822464 ] } },
{ "type": "Feature", "properties": { "id": 165413, "name": "Scrap-room, мастерская скрапбукинга", "city": "Архангельск", "street": "Гагарина", "house": "42", "post": "163051", "x": 40.55582838, "y": 64.55513452 }, "geometry": { "type": "Point", "coordinates": [ 4514654.163960997015238, 9492155.718566216528416 ] } },
{ "type": "Feature", "properties": { "id": 165452, "name": "Центр подготовки и развития массажистов, ООО", "city": "Северодвинск (Северодвинск городской округ)", "street": "Профсоюзная", "house": "11а", "post": "164520", "x": 39.8377596, "y": 64.56360207 }, "geometry": { "type": "Point", "coordinates": [ 4434719.113016851246357, 9494349.984935954213142 ] } },
{ "type": "Feature", "properties": { "id": 166052, "name": "Развитие, ООО, учебный центр", "city": "Архангельск", "street": "Гайдара", "house": "44/1", "post": "163071", "x": 40.54312629, "y": 64.55069924 }, "geometry": { "type": "Point", "coordinates": [ 4513240.173770185559988, 9491006.639706887304783 ] } },
{ "type": "Feature", "properties": { "id": 166082, "name": "Средняя школа №95 им. П.Г. Лушева с дошкольным отделением", "city": "Архангельск", "street": "Ленинградский проспект", "house": "165 к1", "post": "163015", "x": 40.64381914, "y": 64.51513428 }, "geometry": { "type": "Point", "coordinates": [ 4524449.250558722764254, 9481799.330284394323826 ] } },
{ "type": "Feature", "properties": { "id": 166189, "name": "Средняя школа №1", "city": "Архангельск", "street": "Комсомольская", "house": "5", "post": "163045", "x": 40.53025738, "y": 64.56358402 }, "geometry": { "type": "Point", "coordinates": [ 4511807.613261926919222, 9494345.306764833629131 ] } },
{ "type": "Feature", "properties": { "id": 166261, "name": "Северный (Арктический) федеральный университет им. М.В. Ломоносова, ФГАОУ ВО", "city": "Архангельск", "street": "Смольный Буян", "house": "3", "post": "163002", "x": 40.56661835, "y": 64.53083113 }, "geometry": { "type": "Point", "coordinates": [ 4515855.29792707413435, 9485861.56301561743021 ] } },
{ "type": "Feature", "properties": { "id": 166308, "name": "Средняя школа №70 им. Александра Грина с дошкольным отделением", "city": "Архангельск", "street": "Кегостровская", "house": "85", "post": "163017", "x": 40.43171145, "y": 64.53860111 }, "geometry": { "type": "Point", "coordinates": [ 4500837.5305145829916, 9487873.242966458201408 ] } },
{ "type": "Feature", "properties": { "id": 166366, "name": "Средняя школа №45, МБОУ", "city": "Архангельск", "street": "Садовая", "house": "61", "post": "163071", "x": 40.54396892, "y": 64.54958644 }, "geometry": { "type": "Point", "coordinates": [ 4513333.974912714213133, 9490718.368197217583656 ] } },
{ "type": "Feature", "properties": { "id": 167452, "name": "SandLand, студия рисования песком для детей и взрослых", "city": "Архангельск", "street": "Московский проспект", "house": "49", "post": "163065", "x": 40.61931265, "y": 64.53245917 }, "geometry": { "type": "Point", "coordinates": [ 4521721.200570784509182, 9486283.021867133677006 ] } },
{ "type": "Feature", "properties": { "id": 167969, "name": "Центр лечебного массажа Тимура Огадярова", "city": "Архангельск", "street": "Ломоносова проспект", "house": "200", "post": "163000", "x": 40.52458842, "y": 64.54747661 }, "geometry": { "type": "Point", "coordinates": [ 4511176.547521393746138, 9490171.84776146709919 ] } },
{ "type": "Feature", "properties": { "id": 168521, "name": "Фабрика, фотостудия", "city": "Архангельск", "street": "Гагарина", "house": "42", "post": "163051", "x": 40.55582838, "y": 64.55513452 }, "geometry": { "type": "Point", "coordinates": [ 4514654.163960997015238, 9492155.718566216528416 ] } },
{ "type": "Feature", "properties": { "id": 169156, "name": "Средняя школа №36 им. Героя Советского Союза П.В. Усова", "city": "Архангельск", "street": "Смольный Буян", "house": "18 к2", "post": "163002", "x": 40.57623523, "y": 64.53061396 }, "geometry": { "type": "Point", "coordinates": [ 4516925.844111703336239, 9485805.345032922923565 ] } },
{ "type": "Feature", "properties": { "id": 169192, "name": "Северный (Арктический) федеральный университет им. М.В. Ломоносова, ФГАОУ ВО", "city": "Архангельск", "street": "Ленинградский проспект", "house": "40", "post": "163009", "x": 40.60515714, "y": 64.52447947 }, "geometry": { "type": "Point", "coordinates": [ 4520145.41640567407012, 9484217.517398849129677 ] } },
{ "type": "Feature", "properties": { "id": 169379, "name": "Федеральный исследовательский центр комплексного изучения Арктики им. академика Н.П. Лаверова РАН, ФГБНУ", "city": "Архангельск", "street": "Северной Двины набережная", "house": "109", "post": "163000", "x": 40.51596568, "y": 64.55032974 }, "geometry": { "type": "Point", "coordinates": [ 4510216.668495360761881, 9490910.919204883277416 ] } },
{ "type": "Feature", "properties": { "id": 169598, "name": "Лингва плюс, школа английского языка, г. Архангельск", "city": "Архангельск", "street": "Московский проспект", "house": "49", "post": "163065", "x": 40.61931265, "y": 64.53245917 }, "geometry": { "type": "Point", "coordinates": [ 4521721.200570784509182, 9486283.021867133677006 ] } },
{ "type": "Feature", "properties": { "id": 169634, "name": "Техникум судостроения и машиностроения, ГБПОУ", "city": "Северодвинск (Северодвинск городской округ)", "street": "Карла Маркса", "house": "34", "post": "164512", "x": 39.78593226, "y": 64.55822945 }, "geometry": { "type": "Point", "coordinates": [ 4428949.719918880611658, 9492957.654369629919529 ] } },
{ "type": "Feature", "properties": { "id": 170122, "name": "Основная школа №12 им. Героя Российской Федерации генерал-полковника И.В. Коробова с дошкольным отделением", "city": "Талажский авиагородок", "street": "Авиационная", "house": "11 к1", "post": "163053", "x": 40.71296677, "y": 64.59156266 }, "geometry": { "type": "Point", "coordinates": [ 4532146.729519873857498, 9501600.490478672087193 ] } },
{ "type": "Feature", "properties": { "id": 170249, "name": "Гимназия №3 им. К.П. Гемп, МБОУ", "city": "Архангельск", "street": "Воскресенская", "house": "7/1", "post": "163000", "x": 40.51951677, "y": 64.54063537 }, "geometry": { "type": "Point", "coordinates": [ 4510611.974025916308165, 9488400.015928506851196 ] } },
{ "type": "Feature", "properties": { "id": 170518, "name": "Ластольская средняя школа, МБОУ", "city": "Ластола (Приморский район)", "street": "Северодвинская", "house": "5", "post": "163524", "x": 40.28609682, "y": 64.59798068000001 }, "geometry": { "type": "Point", "coordinates": [ 4484627.784050934016705, 9503265.808602288365364 ] } },
{ "type": "Feature", "properties": { "id": 171436, "name": "Титан-Щит, группа охранных предприятий", "city": "Архангельск", "street": "Гайдара", "house": "63", "post": "163071", "x": 40.5508171, "y": 64.55234353 }, "geometry": { "type": "Point", "coordinates": [ 4514096.310823179781437, 9491432.615557171404362 ] } },
{ "type": "Feature", "properties": { "id": 171677, "name": "Высший балл, образовательный центр", "city": "Архангельск", "street": "Чумбарова-Лучинского проспект", "house": "7 к1", "post": "", "x": 40.53398367, "y": 64.53250506000001 }, "geometry": { "type": "Point", "coordinates": [ 4512222.421967275440693, 9486294.902005158364773 ] } },
{ "type": "Feature", "properties": { "id": 172072, "name": "Арктический морской институт им. В.И. Воронина, ФГБОУ ВО Государственный университет морского и речного флота им. адмирала С.О. Макарова", "city": "Архангельск", "street": "Северной Двины набережная", "house": "111", "post": "163000", "x": 40.51567585, "y": 64.55167319 }, "geometry": { "type": "Point", "coordinates": [ 4510184.404767338186502, 9491258.951695248484612 ] } },
{ "type": "Feature", "properties": { "id": 172400, "name": "Северный государственный медицинский университет, ФГБОУ ВО", "city": "Архангельск", "street": "Вологодская", "house": "7", "post": "163001", "x": 40.52119865, "y": 64.55586703 }, "geometry": { "type": "Point", "coordinates": [ 4510799.200051087886095, 9492345.513017535209656 ] } },
{ "type": "Feature", "properties": { "id": 172463, "name": "Детская школа искусств №31, МБУ ДО", "city": "Архангельск", "street": "Воронина В.И.", "house": "27 к1", "post": "163057", "x": 40.67734589, "y": 64.50625925 }, "geometry": { "type": "Point", "coordinates": [ 4528181.431296661496162, 9479503.569021672010422 ] } },
{ "type": "Feature", "properties": { "id": 172486, "name": "Открытая сменная школа, МБОУ ОСШ", "city": "Архангельск", "street": "Чумбарова-Лучинского проспект", "house": "28", "post": "", "x": 40.52912741, "y": 64.53545565 }, "geometry": { "type": "Point", "coordinates": [ 4511681.825576916337013, 9487058.801353558897972 ] } },
{ "type": "Feature", "properties": { "id": 172838, "name": "Уемская средняя школа, МБОУ", "city": "Уемский (Приморский район)", "street": "Заводская", "house": "10", "post": "163502", "x": 40.84247876, "y": 64.47829293 }, "geometry": { "type": "Point", "coordinates": [ 4546563.938298299908638, 9472274.21484038233757 ] } },
{ "type": "Feature", "properties": { "id": 172875, "name": "Архангельский медицинский колледж", "city": "Архангельск", "street": "Ломоносова проспект", "house": "30 к2", "post": "163002", "x": 40.55609267, "y": 64.53171804 }, "geometry": { "type": "Point", "coordinates": [ 4514683.584589220583439, 9486091.158722288906574 ] } },
{ "type": "Feature", "properties": { "id": 172924, "name": "Российская Арктика, научно-образовательный центр, САФУ им. М.В. Ломоносова", "city": "Архангельск", "street": "Северной Двины набережная", "house": "17", "post": "163002", "x": 40.55102764, "y": 64.52927752 }, "geometry": { "type": "Point", "coordinates": [ 4514119.748028770089149, 9485459.395673833787441 ] } },
{ "type": "Feature", "properties": { "id": 173270, "name": "Архангельский НИИ сельского хозяйства, Приморский филиал ФГБУН ФИЦКИА РАН", "city": "Луговой (Приморский район)", "street": "Луговой посёлок", "house": "10", "post": "163032", "x": 40.43444832, "y": 64.51047134 }, "geometry": { "type": "Point", "coordinates": [ 4501142.197489339858294, 9480593.044516488909721 ] } },
{ "type": "Feature", "properties": { "id": 174494, "name": "Ok, студия английского языка", "city": "Северодвинск (Северодвинск городской округ)", "street": "Ломоносова", "house": "103", "post": "164522", "x": 39.76473997, "y": 64.54691023 }, "geometry": { "type": "Point", "coordinates": [ 4426590.604987345635891, 9490025.142550185322762 ] } },
{ "type": "Feature", "properties": { "id": 174575, "name": "Школа Маяк, семейный клуб", "city": "Архангельск", "street": "Ломоносова проспект", "house": "261", "post": "163001", "x": 40.52766765, "y": 64.55568922 }, "geometry": { "type": "Point", "coordinates": [ 4511519.325837038457394, 9492299.441708274185658 ] } },
{ "type": "Feature", "properties": { "id": 175275, "name": "Средняя школа №43", "city": "Архангельск", "street": "Кировская", "house": "12", "post": "163012", "x": 40.5936692, "y": 64.59110382 }, "geometry": { "type": "Point", "coordinates": [ 4518866.584774609655142, 9501481.447841256856918 ] } },
{ "type": "Feature", "properties": { "id": 175411, "name": "Средняя школа №95 им. П.Г. Лушева с дошкольным отделением", "city": "Архангельск", "street": "Лермонтова", "house": "15", "post": "163011", "x": 40.63129404, "y": 64.50350677 }, "geometry": { "type": "Point", "coordinates": [ 4523054.962804578244686, 9478791.718774430453777 ] } },
{ "type": "Feature", "properties": { "id": 176134, "name": "English Club, кабинет английского языка", "city": "Архангельск", "street": "Урицкого", "house": "47", "post": "163060", "x": 40.56702931, "y": 64.53779532 }, "geometry": { "type": "Point", "coordinates": [ 4515901.045785017311573, 9487664.593978084623814 ] } },
{ "type": "Feature", "properties": { "id": 176365, "name": "Гимназия № 25, МБОУ", "city": "Архангельск", "street": "Московский проспект", "house": "43 к2", "post": "163065", "x": 40.61398085, "y": 64.5343109 }, "geometry": { "type": "Point", "coordinates": [ 4521127.667309775948524, 9486762.419031545519829 ] } },
{ "type": "Feature", "properties": { "id": 177015, "name": "Открытая сменная школа, МБОУ ОСШ", "city": "Архангельск", "street": "Терёхина", "house": "3", "post": "163020", "x": 40.51010985, "y": 64.57757447 }, "geometry": { "type": "Point", "coordinates": [ 4509564.800481587648392, 9497972.259932808578014 ] } },
{ "type": "Feature", "properties": { "id": 178135, "name": "Васьковская средняя общеобразовательная школа с дошкольным отделением", "city": "Васьково (Приморский район)", "street": "Васьково", "house": "50", "post": "163512", "x": 40.45322339, "y": 64.41245412000001 }, "geometry": { "type": "Point", "coordinates": [ 4503232.228721354156733, 9455283.87632005661726 ] } },
{ "type": "Feature", "properties": { "id": 178525, "name": "Специальная (коррекционная) общеобразовательная школа №31", "city": "Архангельск", "street": "Ленинградский проспект", "house": "17", "post": "163002", "x": 40.57755534, "y": 64.52812214 }, "geometry": { "type": "Point", "coordinates": [ 4517072.798084687441587, 9485160.32895589619875 ] } },
{ "type": "Feature", "properties": { "id": 179640, "name": "Средняя школа №9", "city": "Архангельск", "street": "Ломоносова проспект", "house": "80", "post": "163046", "x": 40.54237712, "y": 64.53340959000001 }, "geometry": { "type": "Point", "coordinates": [ 4513156.776547268033028, 9486529.073466636240482 ] } },
{ "type": "Feature", "properties": { "id": 179916, "name": "Средняя общеобразовательная школа №54 с дошкольным отделением", "city": "Архангельск", "street": "Колхозная", "house": "11", "post": "163023", "x": 40.50138391, "y": 64.64442924 }, "geometry": { "type": "Point", "coordinates": [ 4508593.433284096419811, 9515329.789008446037769 ] } },
{ "type": "Feature", "properties": { "id": 180355, "name": "Детская школа народных ремесел, ГБОУ ДО", "city": "Архангельск", "street": "Чумбарова-Лучинского проспект", "house": "33", "post": "", "x": 40.52795527, "y": 64.53496384 }, "geometry": { "type": "Point", "coordinates": [ 4511551.343548979610205, 9486931.467408299446106 ] } },
{ "type": "Feature", "properties": { "id": 180884, "name": "Северный (Арктический) федеральный университет им. М.В. Ломоносова, ФГАОУ ВО", "city": "Архангельск", "street": "Смольный Буян", "house": "3 к1", "post": "163002", "x": 40.56541555, "y": 64.53143522000001 }, "geometry": { "type": "Point", "coordinates": [ 4515721.402843553572893, 9486017.94387923181057 ] } },
{ "type": "Feature", "properties": { "id": 181045, "name": "Северная театральная эстрадно-цирковая школа, ЧОУ ДО", "city": "Архангельск", "street": "Ломоносова проспект", "house": "269", "post": "163001", "x": 40.52793793, "y": 64.55734516 }, "geometry": { "type": "Point", "coordinates": [ 4511549.413269009441137, 9492728.514270521700382 ] } },
{ "type": "Feature", "properties": { "id": 181232, "name": "Интерконтакт, студия иностранных языков", "city": "Архангельск", "street": "Троицкий проспект", "house": "94", "post": "163000", "x": 40.51687658, "y": 64.54267061 }, "geometry": { "type": "Point", "coordinates": [ 4510318.069419514387846, 9488927.081975035369396 ] } },
{ "type": "Feature", "properties": { "id": 181401, "name": "Средняя общеобразовательная школа №20 с углубленным изучением социально-экономических дисциплин", "city": "Северодвинск (Северодвинск городской округ)", "street": "Труда проспект", "house": "7Б", "post": "164500", "x": 39.79765036, "y": 64.56188532 }, "geometry": { "type": "Point", "coordinates": [ 4430254.17284394428134, 9493905.054190531373024 ] } },
{ "type": "Feature", "properties": { "id": 181605, "name": "Северный (Арктический) федеральный университет им. М.В. Ломоносова, ФГАОУ ВО", "city": "Архангельск", "street": "Ломоносова проспект", "house": "39 к1", "post": "163002", "x": 40.55172937, "y": 64.53033615 }, "geometry": { "type": "Point", "coordinates": [ 4514197.864255044609308, 9485733.430053241550922 ] } },
{ "type": "Feature", "properties": { "id": 181856, "name": "Техникум строительства и городского хозяйства", "city": "Архангельск", "street": "Воронина В.И.", "house": "30 к4", "post": "163062", "x": 40.68347022, "y": 64.51366641 }, "geometry": { "type": "Point", "coordinates": [ 4528863.188593715429306, 9481419.575396060943604 ] } },
{ "type": "Feature", "properties": { "id": 182491, "name": "Средняя общеобразовательная школа №29, МБОУ", "city": "Северодвинск (Северодвинск городской округ)", "street": "Морской проспект", "house": "56а", "post": "164523", "x": 39.77496576, "y": 64.53939256 }, "geometry": { "type": "Point", "coordinates": [ 4427728.934723097831011, 9488078.1847949847579 ] } },
{ "type": "Feature", "properties": { "id": 182726, "name": "Коммерческая школа (техникум), ЧПОУ", "city": "Северодвинск (Северодвинск городской округ)", "street": "Индустриальная", "house": "39", "post": "164501", "x": 39.83181607, "y": 64.56192375000001 }, "geometry": { "type": "Point", "coordinates": [ 4434057.482283737510443, 9493915.013801455497742 ] } },
{ "type": "Feature", "properties": { "id": 182993, "name": "Творческий салон", "city": "Северодвинск (Северодвинск городской округ)", "street": "Профсоюзная", "house": "11а", "post": "164520", "x": 39.8377596, "y": 64.56360207 }, "geometry": { "type": "Point", "coordinates": [ 4434719.113016851246357, 9494349.984935954213142 ] } },
{ "type": "Feature", "properties": { "id": 183180, "name": "Северный (Арктический) федеральный университет им. М.В. Ломоносова, ФГАОУ ВО", "city": "Северодвинск (Северодвинск городской округ)", "street": "Капитана Воронина", "house": "6а", "post": "164500", "x": 39.80204522, "y": 64.5627316 }, "geometry": { "type": "Point", "coordinates": [ 4430743.40642125159502, 9494124.381394609808922 ] } },
{ "type": "Feature", "properties": { "id": 183197, "name": "Северный государственный медицинский университет, ФГБОУ ВО", "city": "Архангельск", "street": "Северной Двины набережная", "house": "124", "post": "163001", "x": 40.52595602, "y": 64.56122059 }, "geometry": { "type": "Point", "coordinates": [ 4511328.788057010620832, 9493732.783392801880836 ] } },
{ "type": "Feature", "properties": { "id": 183774, "name": "Архангельский техникум водных магистралей им. С.Н. Орешкова, ГАПОУ", "city": "Архангельск", "street": "Юности", "house": "7", "post": "163022", "x": 40.53527979, "y": 64.64205828 }, "geometry": { "type": "Point", "coordinates": [ 4512366.705385684967041, 9514713.485274694859982 ] } },
{ "type": "Feature", "properties": { "id": 183822, "name": "Средняя общеобразовательная школа №30 с дошкольным отделением, МАОУ Средняя общеобразовательная школа №30, г. Северодвинск", "city": "Северодвинск (Северодвинск городской округ)", "street": "Советских Космонавтов", "house": "6а", "post": "164522", "x": 39.76731694, "y": 64.54411163 }, "geometry": { "type": "Point", "coordinates": [ 4426877.471975531429052, 9489300.286665290594101 ] } },
{ "type": "Feature", "properties": { "id": 183833, "name": "Синергия, Московский финансово-промышленный университет, НОЧУ ВО Синергия", "city": "Архангельск", "street": "Троицкий проспект", "house": "94", "post": "163000", "x": 40.51687658, "y": 64.54267061 }, "geometry": { "type": "Point", "coordinates": [ 4510318.069419514387846, 9488927.081975035369396 ] } },
{ "type": "Feature", "properties": { "id": 184083, "name": "Северный государственный медицинский университет, ФГБОУ ВО", "city": "Архангельск", "street": "Сибиряковцев проезд", "house": "2 к3", "post": "163045", "x": 40.54952753, "y": 64.56351567 }, "geometry": { "type": "Point", "coordinates": [ 4513952.756547436118126, 9494327.591945506632328 ] } },
{ "type": "Feature", "properties": { "id": 184318, "name": "Средняя общеобразовательная школа №22", "city": "Архангельск", "street": "Советских Космонавтов проспект", "house": "69", "post": "163046", "x": 40.53582646, "y": 64.53928868 }, "geometry": { "type": "Point", "coordinates": [ 4512427.560411714017391, 9488051.28527457267046 ] } },
{ "type": "Feature", "properties": { "id": 184324, "name": "Высший балл, образовательный центр", "city": "Архангельск", "street": "Никитова", "house": "9 к1", "post": "163062", "x": 40.67032108, "y": 64.51137829 }, "geometry": { "type": "Point", "coordinates": [ 4527399.433024551719427, 9480827.653080113232136 ] } },
{ "type": "Feature", "properties": { "id": 185268, "name": "Кодология, школа программирования", "city": "Архангельск", "street": "Ломоносова проспект", "house": "199", "post": "163000", "x": 40.52217274, "y": 64.5454218 }, "geometry": { "type": "Point", "coordinates": [ 4510907.635253876447678, 9489639.620089136064053 ] } },
{ "type": "Feature", "properties": { "id": 185425, "name": "Архангельский техникум строительства и экономики, ГБПОУ", "city": "Архангельск", "street": "Воронина В.И.", "house": "30 к1", "post": "163062", "x": 40.6795592, "y": 64.51302683 }, "geometry": { "type": "Point", "coordinates": [ 4528427.81583883985877, 9481254.115061834454536 ] } },
{ "type": "Feature", "properties": { "id": 185884, "name": "Уемская средняя школа, МБОУ", "city": "Уемский (Приморский район)", "street": "Большесельская", "house": "93", "post": "163502", "x": 40.86943654, "y": 64.47311528 }, "geometry": { "type": "Point", "coordinates": [ 4549564.864640820771456, 9470936.592038042843342 ] } },
{ "type": "Feature", "properties": { "id": 186001, "name": "Многопрофильный колледж, ГБПОУ Архангельский государственный многопрофильный колледж", "city": "Архангельск", "street": "Ильича", "house": "43", "post": "163059", "x": 40.57958965, "y": 64.60283105000001 }, "geometry": { "type": "Point", "coordinates": [ 4517299.256438005715609, 9504524.620793648064137 ] } },
{ "type": "Feature", "properties": { "id": 186093, "name": "Терра Когнита, центр иностранных языков", "city": "Северодвинск (Северодвинск городской округ)", "street": "Ломоносова", "house": "107", "post": "164522", "x": 39.76507896, "y": 64.54651201 }, "geometry": { "type": "Point", "coordinates": [ 4426628.341181520372629, 9489921.996400862932205 ] } },
{ "type": "Feature", "properties": { "id": 186599, "name": "Oк, студия английского языка", "city": "Архангельск", "street": "Советских Космонавтов проспект", "house": "82", "post": "163046", "x": 40.53424139, "y": 64.54090522 }, "geometry": { "type": "Point", "coordinates": [ 4512251.111226443201303, 9488469.896714203059673 ] } },
{ "type": "Feature", "properties": { "id": 187043, "name": "SISSTERS, кибершкола для девочек", "city": "Архангельск", "street": "Троицкий проспект", "house": "20", "post": "163069", "x": 40.5267068, "y": 64.5341725 }, "geometry": { "type": "Point", "coordinates": [ 4511412.364504311233759, 9486726.587322540581226 ] } },
{ "type": "Feature", "properties": { "id": 187180, "name": "Средняя общеобразовательная школа №24 с дошкольным отделением", "city": "Северодвинск (Северодвинск городской округ)", "street": "Северная", "house": "8а", "post": "164509", "x": 39.80153195, "y": 64.59895979 }, "geometry": { "type": "Point", "coordinates": [ 4430686.269466210156679, 9503519.898066937923431 ] } },
{ "type": "Feature", "properties": { "id": 187638, "name": "Архангельский техникум строительства и экономики, ГБПОУ", "city": "Архангельск", "street": "Володарского", "house": "12", "post": "163069", "x": 40.53159357, "y": 64.53494439000001 }, "geometry": { "type": "Point", "coordinates": [ 4511956.357252329587936, 9486926.431679002940655 ] } },
{ "type": "Feature", "properties": { "id": 189591, "name": "Детская школа искусств №48, МБУ ДО", "city": "Архангельск", "street": "Севстрой", "house": "2 к2", "post": "163044", "x": 40.35082271, "y": 64.52776672 }, "geometry": { "type": "Point", "coordinates": [ 4491833.037166867405176, 9485068.332079499959946 ] } },
{ "type": "Feature", "properties": { "id": 189804, "name": "Архангельская средняя общеобразовательная школа Соловецких юнг", "city": "Архангельск", "street": "Прокопия Галушина", "house": "25 к1", "post": "163065", "x": 40.62156543, "y": 64.53516658 }, "geometry": { "type": "Point", "coordinates": [ 4521971.978893250226974, 9486983.958303794264793 ] } },
{ "type": "Feature", "properties": { "id": 190568, "name": "Учебный центр Федерации профсоюзов Архангельской области, ЧОУ ДПО", "city": "Архангельск", "street": "Ломоносова проспект", "house": "209", "post": "163000", "x": 40.52312322, "y": 64.54732517 }, "geometry": { "type": "Point", "coordinates": [ 4511013.442203491926193, 9490132.621082879602909 ] } },
{ "type": "Feature", "properties": { "id": 190740, "name": "Архангельский торгово-экономический колледж, ГАПОУ", "city": "Архангельск", "street": "Обводный канал проспект", "house": "12", "post": "163060", "x": 40.56173812, "y": 64.53685511 }, "geometry": { "type": "Point", "coordinates": [ 4515312.033208519220352, 9487421.146444424986839 ] } },
{ "type": "Feature", "properties": { "id": 190862, "name": "Музыкант, учебный репетиторский центр", "city": "Архангельск", "street": "Обводный канал проспект", "house": "10", "post": "163060", "x": 40.56327959, "y": 64.53653082 }, "geometry": { "type": "Point", "coordinates": [ 4515483.628863994032145, 9487337.180339820683002 ] } },
{ "type": "Feature", "properties": { "id": 191177, "name": "Северный (Арктический) федеральный университет им. М.В. Ломоносова, ФГАОУ ВО", "city": "Архангельск", "street": "Ленинградский проспект", "house": "322", "post": "163030", "x": 40.68149972, "y": 64.50100688000001 }, "geometry": { "type": "Point", "coordinates": [ 4528643.833537105470896, 9478145.255843840539455 ] } },
{ "type": "Feature", "properties": { "id": 191333, "name": "Лингвистическая гимназия №27", "city": "Северодвинск (Северодвинск городской округ)", "street": "Арктическая", "house": "16", "post": "164514", "x": 39.76829582, "y": 64.5511843 }, "geometry": { "type": "Point", "coordinates": [ 4426986.440398681908846, 9491132.298473611474037 ] } },
{ "type": "Feature", "properties": { "id": 191394, "name": "Учи.ру, кружок занимательной математики", "city": "Архангельск", "street": "Ломоносова проспект", "house": "199", "post": "163000", "x": 40.52217274, "y": 64.5454218 }, "geometry": { "type": "Point", "coordinates": [ 4510907.635253876447678, 9489639.620089136064053 ] } },
{ "type": "Feature", "properties": { "id": 191747, "name": "Северный техникум транспорта и технологий", "city": "Архангельск", "street": "Ильича", "house": "41", "post": "163059", "x": 40.57645789, "y": 64.60106333 }, "geometry": { "type": "Point", "coordinates": [ 4516950.63050951808691, 9504065.820009581744671 ] } },
{ "type": "Feature", "properties": { "id": 191840, "name": "Институт управления, ЧОУ ВО", "city": "Архангельск", "street": "Урицкого", "house": "43", "post": "163060", "x": 40.56542792, "y": 64.53623095 }, "geometry": { "type": "Point", "coordinates": [ 4515722.779865652322769, 9487259.538020335137844 ] } },
{ "type": "Feature", "properties": { "id": 191876, "name": "Вознесенская средняя школа-детский сад", "city": "Вознесенье (Приморский район)", "street": "Центральная", "house": "75", "post": "163520", "x": 40.33998755, "y": 64.57406434000001 }, "geometry": { "type": "Point", "coordinates": [ 4490626.872673001140356, 9497062.101485773921013 ] } },
{ "type": "Feature", "properties": { "id": 191990, "name": "Творческое пространство", "city": "Архангельск", "street": "Гагарина", "house": "42", "post": "163051", "x": 40.55582838, "y": 64.55513452 }, "geometry": { "type": "Point", "coordinates": [ 4514654.163960997015238, 9492155.718566216528416 ] } },
{ "type": "Feature", "properties": { "id": 192317, "name": "Средняя школа № 68 с дошкольным отделением", "city": "Архангельск", "street": "Маслова", "house": "22", "post": "163021", "x": 40.49912617, "y": 64.61340922 }, "geometry": { "type": "Point", "coordinates": [ 4508342.102816946804523, 9507270.742532283067703 ] } },
{ "type": "Feature", "properties": { "id": 192584, "name": "Многопрофильный колледж, ГБПОУ Архангельский государственный многопрофильный колледж", "city": "Архангельск", "street": "Партизанская", "house": "47 к3", "post": "163059", "x": 40.58741745, "y": 64.60136624 }, "geometry": { "type": "Point", "coordinates": [ 4518170.64314803481102, 9504144.436308480799198 ] } },
{ "type": "Feature", "properties": { "id": 192907, "name": "Speak it Up, репетиторский центр", "city": "Архангельск", "street": "Беломорской Военной Флотилии", "house": "2 к3", "post": "163020", "x": 40.50223225, "y": 64.5756437 }, "geometry": { "type": "Point", "coordinates": [ 4508687.870060916990042, 9497471.606801308691502 ] } },
{ "type": "Feature", "properties": { "id": 194108, "name": "Средняя общеобразовательная школа №30 с дошкольным отделением, МАОУ Средняя общеобразовательная школа №30, г. Северодвинск", "city": "Северодвинск (Северодвинск городской округ)", "street": "Коновалова", "house": "3а", "post": "164515", "x": 39.77248749, "y": 64.54635959 }, "geometry": { "type": "Point", "coordinates": [ 4427453.054968655109406, 9489882.517275333404541 ] } },
{ "type": "Feature", "properties": { "id": 194958, "name": "ВундерКит, детский развивающий центр, ООО Вундеркинд", "city": "Архангельск", "street": "Ломоносова проспект", "house": "13", "post": "163002", "x": 40.56353963, "y": 64.52837663 }, "geometry": { "type": "Point", "coordinates": [ 4515512.576384380459785, 9485226.201857432723045 ] } },
{ "type": "Feature", "properties": { "id": 195013, "name": "Надежда, центр психолого-медико-социального сопровождения для детей", "city": "Архангельск", "street": "Ильича", "house": "43", "post": "163059", "x": 40.57958965, "y": 64.60283105000001 }, "geometry": { "type": "Point", "coordinates": [ 4517299.256438005715609, 9504524.620793648064137 ] } },
{ "type": "Feature", "properties": { "id": 195447, "name": "Приморская средняя школа с дошкольным отделением", "city": "Рикасиха (Приморский район)", "street": "Рикасиха деревня", "house": "67", "post": "163523", "x": 40.17024567, "y": 64.53695848 }, "geometry": { "type": "Point", "coordinates": [ 4471731.293025109916925, 9487447.911513529717922 ] } },
{ "type": "Feature", "properties": { "id": 197632, "name": "", "city": "", "street": "", "house": "", "post": "", "x": 43.3874475, "y": 64.6886701 }, "geometry": { "type": "Point", "coordinates": [ 4829868.562519900500774, 9526839.573633536696434 ] } },
{ "type": "Feature", "properties": { "id": 197633, "name": "Пинежский индустриальный техникум", "city": "", "street": "", "house": "", "post": "", "x": 43.3886586, "y": 64.6887933 }, "geometry": { "type": "Point", "coordinates": [ 4830003.381555199623108, 9526871.651802755892277 ] } },
{ "type": "Feature", "properties": { "id": 199345, "name": "Школа", "city": "", "street": "", "house": "", "post": "", "x": 45.524405, "y": 63.6091962 }, "geometry": { "type": "Point", "coordinates": [ 5067753.583266768604517, 9251210.649565018713474 ] } },
{ "type": "Feature", "properties": { "id": 201703, "name": "Школа", "city": "", "street": "", "house": "", "post": "", "x": 43.3892122, "y": 64.6939579 }, "geometry": { "type": "Point", "coordinates": [ 4830065.008025299757719, 9528216.514463506639004 ] } },
{ "type": "Feature", "properties": { "id": 205191, "name": "Пертоминская средняя школа", "city": "", "street": "", "house": "", "post": "", "x": 38.4167624, "y": 64.7925039 }, "geometry": { "type": "Point", "coordinates": [ 4276534.428294189274311, 9553927.157975643873215 ] } },
{ "type": "Feature", "properties": { "id": 206955, "name": "начальная школа", "city": "", "street": "", "house": "", "post": "", "x": 37.4475349, "y": 63.7174921 }, "geometry": { "type": "Point", "coordinates": [ 4168640.516531348228455, 9278384.337173715233803 ] } },
{ "type": "Feature", "properties": { "id": 206958, "name": "Средняя школа", "city": "", "street": "", "house": "", "post": "", "x": 37.4545795, "y": 63.7131966 }, "geometry": { "type": "Point", "coordinates": [ 4169424.717816192656755, 9277304.528444588184357 ] } },
{ "type": "Feature", "properties": { "id": 210104, "name": "Музыкальная школа", "city": "", "street": "", "house": "", "post": "", "x": 44.4442573, "y": 64.0016939 }, "geometry": { "type": "Point", "coordinates": [ 4947512.091321237385273, 9350194.334302417933941 ] } },
{ "type": "Feature", "properties": { "id": 211250, "name": "Училище для трудников", "city": "", "street": "", "house": "", "post": "", "x": 35.7154233, "y": 65.0268243 }, "geometry": { "type": "Point", "coordinates": [ 3975822.735222227871418, 9615440.696963183581829 ] } },
{ "type": "Feature", "properties": { "id": 211307, "name": "ВСОШ", "city": "", "street": "", "house": "", "post": "", "x": 38.09218, "y": 63.9158519 }, "geometry": { "type": "Point", "coordinates": [ 4240402.080805726349354, 9328427.797739326953888 ] } }
]
}
